{"type":"FeatureCollection","features":[{"type":"Feature","properties":{"Name":"F�brica de aluminio de Aluar","Company":"Aluar","Industry":"Aluminium","CO2_emissions_t":"612057.60","Source_CO2_emissions":"Industrial point source","Source":"","City":"Puerto Madryn","Province":"Chubut"},"geometry":{"type":"Point","coordinates":[-65.102845300067,-42.636151405294]}},{"type":"Feature","properties":{"Name":"Bunge Campana","Company":"Bunge Argentina S.A","Industry":"Ammonia","CO2_emissions_t":"27027.00","Source_CO2_emissions":"Industrial point source","Source":"","City":"Campana","Province":"Buenos Aires"},"geometry":{"type":"Point","coordinates":[-59.004652749122,-34.093540477338]}},{"type":"Feature","properties":{"Name":"Profertil Bahia Blanca","Company":"Profertil S.A.","Industry":"Ammonia","CO2_emissions_t":"710621.00","Source_CO2_emissions":"Industrial point source","Source":"https://rs.profertil.com.ar/","City":"Bahia Blanca","Province":"Buenos Aires"},"geometry":{"type":"Point","coordinates":[-62.281688152983,-38.784244912389]}},{"type":"Feature","properties":{"Name":"Austin Powder","Company":"Austin Powder","Industry":"Ammonia","CO2_emissions_t":"54600.00","Source_CO2_emissions":"Industrial point source","Source":"","City":"El Galp�n","Province":"Salta"},"geometry":{"type":"Point","coordinates":[-64.651986584188,-25.379192832399]}},{"type":"Feature","properties":{"Name":"Bioenerg�a la Corona","Company":"Bioenergia La Corona S.A.","Industry":"Bioethanol","CO2_emissions_t":"24300.00","Source_CO2_emissions":"Biogenic point source","Source":"Carbio","City":"Concepci�n","Province":"Tucum�n"},"geometry":{"type":"Point","coordinates":[-65.602941337606,-27.354815697666]}},{"type":"Feature","properties":{"Name":"Bioenerg�as Agropecuarias S.A.","Company":"BIOENERG�ASAGROPECUARIAS S.A.","Industry":"Bioethanol","CO2_emissions_t":"24750.00","Source_CO2_emissions":"Biogenic point source","Source":"Carbio","City":"General Obligado","Province":"Santa Fe"},"geometry":{"type":"Point","coordinates":[-59.396841152866,-28.487611654481]}},{"type":"Feature","properties":{"Name":"Ingenio Santa Rosa","Company":"Bioenerg�a Santa Rosa S.A.","Industry":"Bioethanol","CO2_emissions_t":"24300.00","Source_CO2_emissions":"Biogenic point source","Source":"Carbio","City":"Monteros","Province":"Tucum�n"},"geometry":{"type":"Point","coordinates":[-65.516954427435,-27.221398484002]}},{"type":"Feature","properties":{"Name":"Ingenio Ledesma","Company":"Bio Ledesma S.A.","Industry":"Bioethanol","CO2_emissions_t":"74250.00","Source_CO2_emissions":"Biogenic point source","Source":"Carbio","City":"Libertador General San Martin","Province":"Jujuy"},"geometry":{"type":"Point","coordinates":[-64.788009742716,-23.824367770667]}},{"type":"Feature","properties":{"Name":"Bio San Isidro","Company":"Bio San Isidro S.A.","Industry":"Bioethanol","CO2_emissions_t":"10125.00","Source_CO2_emissions":"Biogenic point source","Source":"Carbio","City":"Campo Santo","Province":"Salta"},"geometry":{"type":"Point","coordinates":[-65.098028752545,-24.681076499462]}},{"type":"Feature","properties":{"Name":"Biotrinidad","Company":"Biotrinidad S.A.","Industry":"Bioethanol","CO2_emissions_t":"21600.00","Source_CO2_emissions":"Biogenic point source","Source":"Carbio","City":"San Miguel de Tucum�n","Province":"Tucum�n"},"geometry":{"type":"Point","coordinates":[-65.208843723293,-26.82826317135]}},{"type":"Feature","properties":{"Name":"Compa��a Bioenerg�tica La Florida","Company":"Compa��a Bioenerg�tica La Florida S.A.","Industry":"Bioethanol","CO2_emissions_t":"93750.00","Source_CO2_emissions":"Biogenic point source","Source":"Carbio","City":"La Florida","Province":"Tucum�n"},"geometry":{"type":"Point","coordinates":[-65.085387664602,-26.817311067583]}},{"type":"Feature","properties":{"Name":"Energ�as Ecol�gicas de Tucum�n","Company":"Energ�as Ecol�gicas de Tucum�n - Grupo Colombres","Industry":"Bioethanol","CO2_emissions_t":"24750.00","Source_CO2_emissions":"Biogenic point source","Source":"Carbio","City":"Aguilares","Province":"Tucum�n"},"geometry":{"type":"Point","coordinates":[-65.609855130089,-27.457104897341]}},{"type":"Feature","properties":{"Name":"Fronterita Energ�a S.A.","Company":"Fronterita Energia S.A.","Industry":"Bioethanol","CO2_emissions_t":"24000.00","Source_CO2_emissions":"Biogenic point source","Source":"Carbio","City":"Juan XXIII","Province":"Tucum�n"},"geometry":{"type":"Point","coordinates":[-65.301579272432,-27.023571204313]}},{"type":"Feature","properties":{"Name":"Ingenio R�o Grande","Company":"Rio Grande Energia S.A.","Industry":"Bioethanol","CO2_emissions_t":"16200.00","Source_CO2_emissions":"Biogenic point source","Source":"Carbio","City":"La Mendieta","Province":"Jujuy"},"geometry":{"type":"Point","coordinates":[-64.968369396614,-24.312587422242]}},{"type":"Feature","properties":{"Name":"ACA","Company":"Aca Bio Cooperativa Ltda.","Industry":"Bioethanol","CO2_emissions_t":"93750.00","Source_CO2_emissions":"Biogenic point source","Source":"Carbio","City":"Villa Mar�a","Province":"C�rdoba"},"geometry":{"type":"Point","coordinates":[-63.161624819303,-32.415971563824]}},{"type":"Feature","properties":{"Name":"Bio IV","Company":"Bioetanol Rio Cuarto A.A.","Industry":"Bioethanol","CO2_emissions_t":"75000.00","Source_CO2_emissions":"Biogenic point source","Source":"Carbio","City":"R�o Cuarto","Province":"C�rdoba"},"geometry":{"type":"Point","coordinates":[-64.383294247291,-33.179986705747]}},{"type":"Feature","properties":{"Name":"Diaser","Company":"Derivados San Luis","Industry":"Bioethanol","CO2_emissions_t":"69300.00","Source_CO2_emissions":"Biogenic point source","Source":"Carbio","City":"San Luis","Province":"San Luis"},"geometry":{"type":"Point","coordinates":[-66.363723848115,-33.325633327674]}},{"type":"Feature","properties":{"Name":"Ma�z Energ�a","Company":"MA�Z ENERG�A S.A.","Industry":"Bioethanol","CO2_emissions_t":"44100.00","Source_CO2_emissions":"Biogenic point source","Source":"Carbio","City":"Ciudad de C�rdoba","Province":"C�rdoba"},"geometry":{"type":"Point","coordinates":[-64.181859290108,-31.371914251034]}},{"type":"Feature","properties":{"Name":"Proma�z","Company":"Promaiz S.A.","Industry":"Bioethanol","CO2_emissions_t":"165000.00","Source_CO2_emissions":"Biogenic point source","Source":"Carbio","City":"Alejandro Roca","Province":"C�rdoba"},"geometry":{"type":"Point","coordinates":[-63.717121341109,-33.365375379094]}},{"type":"Feature","properties":{"Name":"Vicentin","Company":"Vicentin S.A.I.C.","Industry":"Bioethanol","CO2_emissions_t":"86250.00","Source_CO2_emissions":"Biogenic point source","Source":"Carbio","City":"Avellaneda","Province":"Santa Fe"},"geometry":{"type":"Point","coordinates":[-60.714993309701,-31.620994924442]}},{"type":"Feature","properties":{"Name":"Seaboard Energ�a Renovables y Alimentos","Company":"Seaboard Energ�a Renovables y Alimentos","Industry":"Bioethanol","CO2_emissions_t":"185625.00","Source_CO2_emissions":"Biogenic point source","Source":"Carbio","City":"Or�n","Province":"Salta"},"geometry":{"type":"Point","coordinates":[-64.296167721715,-23.202240802675]}},{"type":"Feature","properties":{"Name":"Bioenerg�tica Leales S.A.","Company":"Bioenerg�tica Leales S.A.","Industry":"Bioethanol","CO2_emissions_t":"31500.00","Source_CO2_emissions":"Biogenic point source","Source":"Carbio","City":"Cevil Pozo","Province":"Tucum�n"},"geometry":{"type":"Point","coordinates":[-65.142648974133,-26.844247714198]}},{"type":"Feature","properties":{"Name":"Bio Atar S.A.","Company":"Bio Atar S.A.","Industry":"Bioethanol","CO2_emissions_t":"49500.00","Source_CO2_emissions":"Biogenic point source","Source":"Carbio","City":"Alderetes","Province":"Tucum�n"},"geometry":{"type":"Point","coordinates":[-65.152794845918,-26.834699386014]}},{"type":"Feature","properties":{"Name":"Arauco Argentina S.A. ","Company":"Arauco Argentina S.A. ","Industry":"Cellulose and paper","CO2_emissions_t":"875000.00","Source_CO2_emissions":"Industrial point source","Source":"","City":"Puerto Esperanza","Province":"Misiones"},"geometry":{"type":"Point","coordinates":[-54.633769337301,-25.975739607496]}},{"type":"Feature","properties":{"Name":"Celulosa Argentina S.A.","Company":"Celulosa Argentina S.A.","Industry":"Cellulose and paper","CO2_emissions_t":"416400.00","Source_CO2_emissions":"Industrial point source","Source":"","City":"Capitan Bermudez","Province":"Santa Fe"},"geometry":{"type":"Point","coordinates":[-60.702180344178,-32.736461684818]}},{"type":"Feature","properties":{"Name":"Papel Prensa S.A.I.C.F.","Company":"Papel Prensa S.A.I.C.F.","Industry":"Cellulose and paper","CO2_emissions_t":"421762.50","Source_CO2_emissions":"Industrial point source","Source":"","City":"San Pedro","Province":"Buenos Aires"},"geometry":{"type":"Point","coordinates":[-59.627749242683,-33.721640302338]}},{"type":"Feature","properties":{"Name":"Papel Misionero","Company":"Papel Misionero","Industry":"Cellulose and paper","CO2_emissions_t":"272137.50","Source_CO2_emissions":"Industrial point source","Source":"","City":"Puerto Leoni","Province":"Misiones"},"geometry":{"type":"Point","coordinates":[-55.119804415065,-26.935618555667]}},{"type":"Feature","properties":{"Name":"Papelera del NOA S.A.","Company":"Papelera del NOA S.A.","Industry":"Cellulose and paper","CO2_emissions_t":"85425.00","Source_CO2_emissions":"Industrial point source","Source":"","City":"R�o Blanco","Province":"Jujuy"},"geometry":{"type":"Point","coordinates":[-65.230145288909,-24.23195846007]}},{"type":"Feature","properties":{"Name":"F�brica de Papel Ledesma","Company":"F�brica de Papel Ledesma","Industry":"Cellulose and paper","CO2_emissions_t":"212250.00","Source_CO2_emissions":"Industrial point source","Source":"","City":"Libertador General San Mart�n","Province":"Jujuy"},"geometry":{"type":"Point","coordinates":[-64.795513340677,-23.827656844375]}},{"type":"Feature","properties":{"Name":"F�brica L'Amal�","Company":"Loma Negra","Industry":"Cement","CO2_emissions_t":"2442352.94","Source_CO2_emissions":"Industrial point source","Source":"https://www.lomanegra.com/nuestras-unidades/","City":"Olavarr�a","Province":"Buenos Aires"},"geometry":{"type":"Point","coordinates":[-60.298102492056,-37.036077350579]}},{"type":"Feature","properties":{"Name":"F�brica Olavarr�a","Company":"Loma Negra","Industry":"Cement","CO2_emissions_t":"1144852.94","Source_CO2_emissions":"Industrial point source","Source":"https://www.lomanegra.com/nuestras-unidades/","City":"Olavarr�a","Province":"Buenos Aires"},"geometry":{"type":"Point","coordinates":[-60.16484633863,-36.937255440162]}},{"type":"Feature","properties":{"Name":"F�brica Sierras Bayas","Company":"Loma Negra","Industry":"Cement","CO2_emissions_t":"","Source_CO2_emissions":"Industrial point source","Source":"https://www.lomanegra.com/nuestras-unidades/","City":"Sierras Bayas","Province":"Buenos Aires"},"geometry":{"type":"Point","coordinates":[-60.16503118349,-36.938389904003]}},{"type":"Feature","properties":{"Name":"F�brica Barker","Company":"Loma Negra","Industry":"Cement","CO2_emissions_t":"","Source_CO2_emissions":"Industrial point source","Source":"https://www.lomanegra.com/nuestras-unidades/","City":"Benito Juarez","Province":"Buenos Aires"},"geometry":{"type":"Point","coordinates":[-59.388828,-37.682835584301]}},{"type":"Feature","properties":{"Name":"Planta Ramallo","Company":"Loma Negra","Industry":"Cement","CO2_emissions_t":"","Source_CO2_emissions":"Industrial point source","Source":"https://www.lomanegra.com/nuestras-unidades/","City":"Ramallo","Province":"Buenos Aires"},"geometry":{"type":"Point","coordinates":[-60.153251169315,-33.380229777465]}},{"type":"Feature","properties":{"Name":"F�brica Catamarca","Company":"Loma Negra","Industry":"Cement","CO2_emissions_t":"1373823.53","Source_CO2_emissions":"Industrial point source","Source":"https://www.lomanegra.com/nuestras-unidades/","City":"El Alto","Province":"Catamarca"},"geometry":{"type":"Point","coordinates":[-65.21491433863,-28.466200759561]}},{"type":"Feature","properties":{"Name":"F�brica San Juan","Company":"Loma Negra","Industry":"Cement","CO2_emissions_t":"","Source_CO2_emissions":"Industrial point source","Source":"https://www.lomanegra.com/nuestras-unidades/","City":"Rivadavia","Province":"San Juan"},"geometry":{"type":"Point","coordinates":[-68.674304830685,-31.547171537679]}},{"type":"Feature","properties":{"Name":"F�brica Zapala","Company":"Loma Negra","Industry":"Cement","CO2_emissions_t":"305294.12","Source_CO2_emissions":"Industrial point source","Source":"https://www.lomanegra.com/nuestras-unidades/","City":"Zapala","Province":"Neusaqu�n"},"geometry":{"type":"Point","coordinates":[-70.037730846574,-38.896618405611]}},{"type":"Feature","properties":{"Name":"F�brica LomaSer","Company":"Loma Negra","Industry":"Cement","CO2_emissions_t":"","Source_CO2_emissions":"Industrial point source","Source":"https://www.lomanegra.com/nuestras-unidades/","City":"Vicente Casares","Province":"Buenos Aires"},"geometry":{"type":"Point","coordinates":[-58.642952483835,-34.957976832627]}},{"type":"Feature","properties":{"Name":"Planta Holcim Capdeville Mendoza","Company":"HOLCIM","Industry":"Cement","CO2_emissions_t":"534264.71","Source_CO2_emissions":"Industrial point source","Source":"","City":"Las Heras","Province":"Mendoza"},"geometry":{"type":"Point","coordinates":[-68.83721963863,-32.740610196833]}},{"type":"Feature","properties":{"Name":"Planta Holcim Malague�o","Company":"HOLCIM","Industry":"Cement","CO2_emissions_t":"2366029.41","Source_CO2_emissions":"Industrial point source","Source":"","City":"Malague�o","Province":"C�rdoba"},"geometry":{"type":"Point","coordinates":[-64.358355119461,-31.477144950888]}},{"type":"Feature","properties":{"Name":"Planta Holcim Puesto Viejo","Company":"HOLCIM","Industry":"Cement","CO2_emissions_t":"763235.29","Source_CO2_emissions":"Industrial point source","Source":"","City":"Puesto Viejo","Province":"Jujuy"},"geometry":{"type":"Point","coordinates":[-64.957081198592,-24.490383251894]}},{"type":"Feature","properties":{"Name":"Planta Holcim Campana","Company":"HOLCIM","Industry":"Cement","CO2_emissions_t":"","Source_CO2_emissions":"Industrial point source","Source":"","City":"Campana","Province":"Buenos Aires"},"geometry":{"type":"Point","coordinates":[-59.020346338249,-34.145607191599]}},{"type":"Feature","properties":{"Name":"Planta Campana","Company":"Cementos Avellaneda","Industry":"Cement","CO2_emissions_t":"","Source_CO2_emissions":"Industrial point source","Source":"","City":"Campana","Province":"Buenos Aires"},"geometry":{"type":"Point","coordinates":[-59.001845830862,-34.169785456995]}},{"type":"Feature","properties":{"Name":"F�brica Comodoro Rivadavia","Company":"PCR","Industry":"Cement","CO2_emissions_t":"","Source_CO2_emissions":"Industrial point source","Source":"","City":"Comodoro Rivadavia","Province":"Chubut"},"geometry":{"type":"Point","coordinates":[-67.423681602394,-45.802144551281]}},{"type":"Feature","properties":{"Name":"F�brica Pico Truncado","Company":"PCR","Industry":"Cement","CO2_emissions_t":"457941.18","Source_CO2_emissions":"Industrial point source","Source":"","City":"Pico Truncado","Province":"Santa Cruz"},"geometry":{"type":"Point","coordinates":[-67.929544215843,-46.787138248615]}},{"type":"Feature","properties":{"Name":"Planta sider�rgica Ternium Siderar","Company":"Ternium Argentina S.A.","Industry":"Steel","CO2_emissions_t":"5286272.00","Source_CO2_emissions":"Industrial point source","Source":"https://www.gem.wiki/Planta_sider%C3%BArgica_Ternium_Siderar","City":"Ramallo/San Nicolas","Province":"Buenos Aires"},"geometry":{"type":"Point","coordinates":[-60.159454163788,-33.322604930395]}},{"type":"Feature","properties":{"Name":"","Company":"Ternium Argentina S.A.","Industry":"Steel","CO2_emissions_t":"","Source_CO2_emissions":"Industrial point source","Source":"","City":"Ensenada","Province":"Buenos Aires"},"geometry":{"type":"Point","coordinates":[-57.929249968328,-34.806065837331]}},{"type":"Feature","properties":{"Name":"","Company":"Ternium Argentina S.A.","Industry":"Steel","CO2_emissions_t":"","Source_CO2_emissions":"Industrial point source","Source":"","City":"Haedo","Province":"Buenos Aires"},"geometry":{"type":"Point","coordinates":[-58.631463214818,-34.582627072485]}},{"type":"Feature","properties":{"Name":"","Company":"Ternium Argentina S.A.","Industry":"Steel","CO2_emissions_t":"","Source_CO2_emissions":"Industrial point source","Source":"","City":"Canning","Province":"Buenos Aires"},"geometry":{"type":"Point","coordinates":[-58.516106776976,-34.799426580998]}},{"type":"Feature","properties":{"Name":"","Company":"Ternium Argentina S.A.","Industry":"Steel","CO2_emissions_t":"","Source_CO2_emissions":"Industrial point source","Source":"","City":"Florencio Varela","Province":"Buenos Aires"},"geometry":{"type":"Point","coordinates":[-58.181023790864,-34.727223181628]}},{"type":"Feature","properties":{"Name":"","Company":"Ternium Argentina S.A.","Industry":"Steel","CO2_emissions_t":"","Source_CO2_emissions":"Industrial point source","Source":"","City":"Rosario","Province":"Santa Fe"},"geometry":{"type":"Point","coordinates":[-60.709182306915,-32.88917096654]}},{"type":"Feature","properties":{"Name":"Planta sider�rgica TenarisSiderca","Company":"Ternaris S.A. / Siderca S.A.I.C.","Industry":"Steel","CO2_emissions_t":"650000.00","Source_CO2_emissions":"Industrial point source","Source":"https://www.gem.wiki/Planta_sider%C3%BArgica_TenarisSiderca","City":"Campana","Province":"Buenos Aires"},"geometry":{"type":"Point","coordinates":[-58.977388,-34.152554]}},{"type":"Feature","properties":{"Name":"","Company":"Ternaris S.A. / Siderca S.A.I.C.","Industry":"Steel","CO2_emissions_t":"","Source_CO2_emissions":"Industrial point source","Source":"","City":"Valentin Alsina","Province":"Buenos Aires"},"geometry":{"type":"Point","coordinates":[-58.406812550802,-34.662881539407]}},{"type":"Feature","properties":{"Name":"","Company":"Ternaris S.A. / Siderca S.A.I.C.","Industry":"Steel","CO2_emissions_t":"","Source_CO2_emissions":"Industrial point source","Source":"","City":"Villa Constituci�n","Province":"Santa Fe"},"geometry":{"type":"Point","coordinates":[-60.317617387344,-33.239811665751]}},{"type":"Feature","properties":{"Name":"","Company":"Ternaris S.A. / Siderca S.A.I.C.","Industry":"Steel","CO2_emissions_t":"","Source_CO2_emissions":"Industrial point source","Source":"","City":"Villa Mercedes","Province":"San Luis"},"geometry":{"type":"Point","coordinates":[-58.541869973801,-34.692356244145]}},{"type":"Feature","properties":{"Name":"Planta sider�rgia ArcelorMittal Acindar","Company":"Acindar Industria Argentina de Aceros S.A.","Industry":"Steel","CO2_emissions_t":"1015000.00","Source_CO2_emissions":"Industrial point source","Source":"https://www.gem.wiki/Planta_sider%C3%BArgica_ArcelorMittal_Acindar","City":"Villa Constituci�n","Province":"Santa Fe"},"geometry":{"type":"Point","coordinates":[-60.292472,-33.256309]}},{"type":"Feature","properties":{"Name":"","Company":"Acindar Industria Argentina de Aceros S.A.","Industry":"Steel","CO2_emissions_t":"","Source_CO2_emissions":"Industrial point source","Source":"","City":"Rosario","Province":"Santa Fe"},"geometry":{"type":"Point","coordinates":[-60.722063773338,-32.970771234367]}},{"type":"Feature","properties":{"Name":"","Company":"Acindar Industria Argentina de Aceros S.A.","Industry":"Steel","CO2_emissions_t":"","Source_CO2_emissions":"Industrial point source","Source":"","City":"San Nicolas","Province":"Buenos Aires"},"geometry":{"type":"Point","coordinates":[-60.258632357077,-33.347007971105]}},{"type":"Feature","properties":{"Name":"","Company":"Acindar Industria Argentina de Aceros S.A.","Industry":"Steel","CO2_emissions_t":"","Source_CO2_emissions":"Industrial point source","Source":"","City":"Villa Mercedes","Province":"San Luis"},"geometry":{"type":"Point","coordinates":[-65.464442052362,-33.720877342117]}},{"type":"Feature","properties":{"Name":"Planta Siderurgica ACERBRAG","Company":"Acerbrag S.A. (grupo brasile�o Votorantim)","Industry":"Steel","CO2_emissions_t":"","Source_CO2_emissions":"Industrial point source","Source":"","City":"Bragado","Province":"Buenos Aires"},"geometry":{"type":"Point","coordinates":[-60.452089199364,-35.137117891147]}},{"type":"Feature","properties":{"Name":"Aceros Zapla","Company":"Aceros Zapla S.A.","Industry":"Steel","CO2_emissions_t":"","Source_CO2_emissions":"Industrial point source","Source":"http://www.aceroszapla.com.ar/empresa.php","City":"Palpal�","Province":"Jujuy"},"geometry":{"type":"Point","coordinates":[-65.198160832031,-24.246098800446]}},{"type":"Feature","properties":{"Name":"Planta sider�rgica Gerdau Sipar P�rez","Company":"Gerdau SA","Industry":"Steel","CO2_emissions_t":"103031.00","Source_CO2_emissions":"Industrial point source","Source":"https://www.gem.wiki/Planta_sider%C3%BArgica_Gerdau_Sipar_P%C3%A9rez","City":"P�rez","Province":"Santa Fe"},"geometry":{"type":"Point","coordinates":[-60.7588733,-32.9912336]}},{"type":"Feature","properties":{"Name":"ALUAR SA - GENERADOR","Company":"Aluar","Industry":"Thermal power plant","CO2_emissions_t":"210445.00","Source_CO2_emissions":"Industrial point source","Source":"","City":"Puerto Madryn","Province":"Chubut"},"geometry":{"type":"Point","coordinates":[-65.048399271627,-42.743884803272]}},{"type":"Feature","properties":{"Name":"C.T. AGUA DEL CAJON","Company":"","Industry":"Thermal power plant","CO2_emissions_t":"1108638.00","Source_CO2_emissions":"Industrial point source","Source":"","City":"Neuqu�n","Province":"Neuqu�n"},"geometry":{"type":"Point","coordinates":[-68.357460746867,-38.935318779054]}},{"type":"Feature","properties":{"Name":"C.T. ALMIRANTE BROWN","Company":"Excell Power S.R.L.","Industry":"Thermal power plant","CO2_emissions_t":"7094.00","Source_CO2_emissions":"Industrial point source","Source":"","City":"Burazco","Province":"Buenos Aires"},"geometry":{"type":"Point","coordinates":[-58.405685047387,-34.837660337743]}},{"type":"Feature","properties":{"Name":"C.T. LOMA DE LA LATA S.A.","Company":"C.T. LOMA DE LA LATA S.A.","Industry":"Thermal power plant","CO2_emissions_t":"1779653.00","Source_CO2_emissions":"Industrial point source","Source":"","City":"Neuqu�n","Province":"Neuqu�n"},"geometry":{"type":"Point","coordinates":[-68.606378253807,-38.511789741886]}},{"type":"Feature","properties":{"Name":"C.T. PATAGONICAS SA","Company":"CENTRALES TERMICAS PATAGONICAS S.A.","Industry":"Thermal power plant","CO2_emissions_t":"27712.00","Source_CO2_emissions":"Industrial point source","Source":"","City":"Comodoro Rivadavia","Province":"Chubut"},"geometry":{"type":"Point","coordinates":[-67.444277117473,-45.813906117753]}},{"type":"Feature","properties":{"Name":"C.T. SALTA (TERMOANDES)","Company":"AES","Industry":"Thermal power plant","CO2_emissions_t":"1004183.00","Source_CO2_emissions":"Industrial point source","Source":"","City":"Cobos","Province":"Salta"},"geometry":{"type":"Point","coordinates":[-65.051514960853,-24.742711706449]}},{"type":"Feature","properties":{"Name":"C.TERMICA ALTO VALLE","Company":"","Industry":"Thermal power plant","CO2_emissions_t":"198282.00","Source_CO2_emissions":"Industrial point source","Source":"","City":"Neuqu�n","Province":"Neuqu�n"},"geometry":{"type":"Point","coordinates":[-68.021744873854,-38.951615939006]}},{"type":"Feature","properties":{"Name":"C.TERMICA SAN NICOLAS","Company":"AES","Industry":"Thermal power plant","CO2_emissions_t":"2158549.00","Source_CO2_emissions":"Industrial point source","Source":"","City":"San Nicol�s de Los Arroyos","Province":"Buenos Aires"},"geometry":{"type":"Point","coordinates":[-60.174761787322,-33.358090736896]}},{"type":"Feature","properties":{"Name":"CENTRAL DIQUE S.A.","Company":"CENTRAL DIQUE S.A.","Industry":"Thermal power plant","CO2_emissions_t":"478.00","Source_CO2_emissions":"Industrial point source","Source":"","City":"Ensenada","Province":"Buenos Aires"},"geometry":{"type":"Point","coordinates":[-57.933354360518,-34.889873579663]}},{"type":"Feature","properties":{"Name":"CENTRAL DOCK SUD","Company":"Central Dock Sud","Industry":"Thermal power plant","CO2_emissions_t":"2101890.00","Source_CO2_emissions":"Industrial point source","Source":"","City":"Dock Sud","Province":"Buenos Aires"},"geometry":{"type":"Point","coordinates":[-58.343520587515,-34.653278614482]}},{"type":"Feature","properties":{"Name":"CENTRAL PIEDRA BUENA S.A.","Company":"Pampa Energ�a","Industry":"Thermal power plant","CO2_emissions_t":"243763.00","Source_CO2_emissions":"Industrial point source","Source":"","City":"Ingeniero White","Province":"Buenos Aires"},"geometry":{"type":"Point","coordinates":[-62.256072711436,-38.784825227476]}},{"type":"Feature","properties":{"Name":"CENTRAL PUERTO SA","Company":"Central Puerto S.A.","Industry":"Thermal power plant","CO2_emissions_t":"3481800.00","Source_CO2_emissions":"Industrial point source","Source":"","City":"Luj�n de Cuyo","Province":"Mendoza"},"geometry":{"type":"Point","coordinates":[-68.980717231873,-33.054331672917]}},{"type":"Feature","properties":{"Name":"CENTRAL TERMICA PIQUIRENDA","Company":"Pampa Energ�a","Industry":"Thermal power plant","CO2_emissions_t":"25963.00","Source_CO2_emissions":"Industrial point source","Source":"","City":"Piquirenda","Province":"Salta"},"geometry":{"type":"Point","coordinates":[-63.767005329713,-22.350046037543]}},{"type":"Feature","properties":{"Name":"CT 9 de JULIO C Cost ATLANTICA","Company":"Centrales de la Costa Atl�ntica S.A.","Industry":"Thermal power plant","CO2_emissions_t":"221258.00","Source_CO2_emissions":"Industrial point source","Source":"","City":"Mar del Plata","Province":"Buenos Aires"},"geometry":{"type":"Point","coordinates":[-57.545535829713,-38.049493905321]}},{"type":"Feature","properties":{"Name":"CT ANCHORIS - METHAX","Company":"EMESA","Industry":"Thermal power plant","CO2_emissions_t":"50825.00","Source_CO2_emissions":"Industrial point source","Source":"","City":"Tupungato","Province":"Mendoza"},"geometry":{"type":"Point","coordinates":[-68.891511462424,-33.313356395358]}},{"type":"Feature","properties":{"Name":"CT A�ATUYA - SULLAIR","Company":"","Industry":"Thermal power plant","CO2_emissions_t":"11557.00","Source_CO2_emissions":"Industrial point source","Source":"","City":"A�atuya","Province":"Santiago del Estero"},"geometry":{"type":"Point","coordinates":[-62.855603190138,-28.445841312266]}},{"type":"Feature","properties":{"Name":"CT A�ATUYA II - SULLAIR","Company":"","Industry":"Thermal power plant","CO2_emissions_t":"4840.00","Source_CO2_emissions":"Industrial point source","Source":"","City":"A�atuya","Province":"Santiago del Estero"},"geometry":{"type":"Point","coordinates":[-62.855603190138,-28.445841312266]}},{"type":"Feature","properties":{"Name":"CT ARISTOBU.DEL VALLE-SOENERGY","Company":"","Industry":"Thermal power plant","CO2_emissions_t":"24495.00","Source_CO2_emissions":"Industrial point source","Source":"","City":"Arist�bulo del Valle","Province":"Misiones"},"geometry":{"type":"Point","coordinates":[-54.863442406587,-27.091237692973]}},{"type":"Feature","properties":{"Name":"CT BARKER CIERRE CC","Company":"","Industry":"Thermal power plant","CO2_emissions_t":"636102.00","Source_CO2_emissions":"Industrial point source","Source":"","City":"Benito Ju�rez","Province":"Buenos Aires"},"geometry":{"type":"Point","coordinates":[-59.450665699447,-37.548588257877]}},{"type":"Feature","properties":{"Name":"CT BARRAGAN - ENARSA","Company":"ENARSA","Industry":"Thermal power plant","CO2_emissions_t":"319657.00","Source_CO2_emissions":"Industrial point source","Source":"","City":"Ensenada","Province":"Buenos Aires"},"geometry":{"type":"Point","coordinates":[-57.955774029837,-34.85965750868]}},{"type":"Feature","properties":{"Name":"CT BELL VILLE - SULLAIR","Company":"SULLAIR ARGENTINA S.A.","Industry":"Thermal power plant","CO2_emissions_t":"6459.00","Source_CO2_emissions":"Industrial point source","Source":"","City":"Bell Ville","Province":"C�rdoba"},"geometry":{"type":"Point","coordinates":[-62.68583224526,-32.610395618647]}},{"type":"Feature","properties":{"Name":"CT BRAGADO 2 - GENNEIA","Company":"Genneia","Industry":"Thermal power plant","CO2_emissions_t":"79138.00","Source_CO2_emissions":"Industrial point source","Source":"","City":"Bragado","Province":"Buenos Aires"},"geometry":{"type":"Point","coordinates":[-60.432414256814,-35.136513955612]}},{"type":"Feature","properties":{"Name":"CT BRAGADO 3 - GENNEIA","Company":"Genneia","Industry":"Thermal power plant","CO2_emissions_t":"92453.00","Source_CO2_emissions":"Industrial point source","Source":"","City":"Bragado","Province":"Buenos Aires"},"geometry":{"type":"Point","coordinates":[-60.432414256814,-35.136513955612]}},{"type":"Feature","properties":{"Name":"CT BRIGADIER LOPEZ","Company":"Central Puerto S.A.","Industry":"Thermal power plant","CO2_emissions_t":"64572.00","Source_CO2_emissions":"Industrial point source","Source":"","City":"Santa Fe","Province":"Santa Fe"},"geometry":{"type":"Point","coordinates":[-60.779300214608,-31.712841542501]}},{"type":"Feature","properties":{"Name":"CT CAIMANCITO -SULLAIR","Company":"","Industry":"Thermal power plant","CO2_emissions_t":"62571.00","Source_CO2_emissions":"Industrial point source","Source":"","City":"Libertador Gral San Mart�n","Province":"Jujuy"},"geometry":{"type":"Point","coordinates":[-64.613993172527,-23.732268910377]}},{"type":"Feature","properties":{"Name":"CT CA�ADA DE GOMEZ - SECCO","Company":"Secco","Industry":"Thermal power plant","CO2_emissions_t":"105744.00","Source_CO2_emissions":"Industrial point source","Source":"","City":"Ca�ada de G�mez","Province":"Santa Fe"},"geometry":{"type":"Point","coordinates":[-61.418433516418,-32.781872219229]}},{"type":"Feature","properties":{"Name":"CT CHILECITO - SECCO","Company":"Secco","Industry":"Thermal power plant","CO2_emissions_t":"4810.00","Source_CO2_emissions":"Industrial point source","Source":"","City":"Chilecito","Province":"La Rioja"},"geometry":{"type":"Point","coordinates":[-67.507466658118,-29.157337009257]}},{"type":"Feature","properties":{"Name":"CT COLON BS.AS - SULLAIR","Company":"","Industry":"Thermal power plant","CO2_emissions_t":"5222.00","Source_CO2_emissions":"Industrial point source","Source":"","City":"Col�n","Province":"Buenos Aires"},"geometry":{"type":"Point","coordinates":[-61.097098943922,-33.732012128137]}},{"type":"Feature","properties":{"Name":"CT EZEIZA ETAPA1 G MEDITERRANE","Company":"","Industry":"Thermal power plant","CO2_emissions_t":"56618.00","Source_CO2_emissions":"Industrial point source","Source":"","City":"Carlos Spegazzini","Province":"Buenos Aires"},"geometry":{"type":"Point","coordinates":[-58.616923331727,-34.902743617093]}},{"type":"Feature","properties":{"Name":"CT EZEIZA ETAPA2 G MEDITERRANE","Company":"","Industry":"Thermal power plant","CO2_emissions_t":"32456.00","Source_CO2_emissions":"Industrial point source","Source":"","City":"Carlos Spegazzini","Province":"Buenos Aires"},"geometry":{"type":"Point","coordinates":[-58.616923331727,-34.902743617093]}},{"type":"Feature","properties":{"Name":"CT GENERAL ROJO CIERRE CC","Company":"","Industry":"Thermal power plant","CO2_emissions_t":"619957.00","Source_CO2_emissions":"Industrial point source","Source":"","City":"San Nicol�s de Los Arroyos","Province":"Buenos Aires"},"geometry":{"type":"Point","coordinates":[-60.280902224428,-33.455414780766]}},{"type":"Feature","properties":{"Name":"CT GOYA - SECCO","Company":"","Industry":"Thermal power plant","CO2_emissions_t":"4754.00","Source_CO2_emissions":"Industrial point source","Source":"","City":"Goya","Province":"Corrientes"},"geometry":{"type":"Point","coordinates":[-59.273457149072,-29.158216405042]}},{"type":"Feature","properties":{"Name":"CT INDEPEND. ETAPA1 G MEDITERR","Company":"Grupo Albanesi","Industry":"Thermal power plant","CO2_emissions_t":"10088.00","Source_CO2_emissions":"Industrial point source","Source":"","City":"San Miguel de Tucum�n","Province":"Tucum�n"},"geometry":{"type":"Point","coordinates":[-65.221828614766,-26.866965997646]}},{"type":"Feature","properties":{"Name":"CT INDEPEND. ETAPA2 G MEDITERR","Company":"Grupo Albanesi","Industry":"Thermal power plant","CO2_emissions_t":"9463.00","Source_CO2_emissions":"Industrial point source","Source":"","City":"San Miguel de Tucum�n","Province":"Tucum�n"},"geometry":{"type":"Point","coordinates":[-65.221828614766,-26.866965997646]}},{"type":"Feature","properties":{"Name":"CT ING JUAREZ - SECCO","Company":"","Industry":"Thermal power plant","CO2_emissions_t":"2692.00","Source_CO2_emissions":"Industrial point source","Source":"","City":"Ingeniero Ju�rez","Province":"Formosa"},"geometry":{"type":"Point","coordinates":[-61.831502449431,-23.909016867446]}},{"type":"Feature","properties":{"Name":"CT LA PLATA - SULLAIR","Company":"","Industry":"Thermal power plant","CO2_emissions_t":"14048.00","Source_CO2_emissions":"Industrial point source","Source":"","City":"San Carlos","Province":"Buenos Aires"},"geometry":{"type":"Point","coordinates":[-58.016400581537,-34.933866404668]}},{"type":"Feature","properties":{"Name":"CT LAGUNA BLANCA - SECCO","Company":"","Industry":"Thermal power plant","CO2_emissions_t":"4457.00","Source_CO2_emissions":"Industrial point source","Source":"","City":"Laguna Blanca","Province":"Formosa"},"geometry":{"type":"Point","coordinates":[-58.259150732006,-25.126950545234]}},{"type":"Feature","properties":{"Name":"CT LINCOLN","Company":"","Industry":"Thermal power plant","CO2_emissions_t":"5898.00","Source_CO2_emissions":"Industrial point source","Source":"","City":"Lincoln","Province":"Buenos Aires"},"geometry":{"type":"Point","coordinates":[-61.520703831684,-34.857167311038]}}]}