{
    "type": "FeatureCollection",
    "features": [
   {
     "type": "Feature",
     "geometry": {
        "type": "Point",
        "coordinates":  [ -65.1028453,-42.63615141 ]
     },
     "properties": {
     "Name":"Fábrica de aluminio de Aluar",
     "Company":"Aluar",
     "Industry":"Aluminium",
     "CO2_emissions_t":612057.6,
     "Source_CO2_emissions":"Industrial point source",
     "Source":"Aluminium",
     "City":"Puerto Madryn",
     "Province":"Chubut"
     }
   },
   {
     "type": "Feature",
     "geometry": {
        "type": "Point",
        "coordinates":  [ -59.00465275,-34.09354048 ]
     },
     "properties": {
     "Name":"Bunge Campana",
     "Company":"Bunge Argentina S.A",
     "Industry":"Ammonia",
     "CO2_emissions_t":27027,
     "Source_CO2_emissions":"Industrial point source",
     "Source":"Ammonia",
     "City":"Campana",
     "Province":"Buenos Aires"
     }
   },
   {
     "type": "Feature",
     "geometry": {
        "type": "Point",
        "coordinates":  [ -62.28168815,-38.78424491 ]
     },
     "properties": {
     "Name":"Profertil Bahia Blanca",
     "Company":"Profertil S.A.",
     "Industry":"Ammonia",
     "CO2_emissions_t":710621,
     "Source_CO2_emissions":"Industrial point source",
     "Source":"Ammonia",
     "City":"Bahia Blanca",
     "Province":"Buenos Aires"
     }
   },
   {
     "type": "Feature",
     "geometry": {
        "type": "Point",
        "coordinates":  [ -64.65198658,-25.37919283 ]
     },
     "properties": {
     "Name":"Austin Powder",
     "Company":"Austin Powder",
     "Industry":"Ammonia",
     "CO2_emissions_t":54600,
     "Source_CO2_emissions":"Industrial point source",
     "Source":"Ammonia",
     "City":"El Galpón",
     "Province":"Salta"
     }
   },
   {
     "type": "Feature",
     "geometry": {
        "type": "Point",
        "coordinates":  [ -65.60294134,-27.3548157 ]
     },
     "properties": {
     "Name":"Bioenergía la Corona",
     "Company":"Bioenergia La Corona S.A.",
     "Industry":"Bioethanol",
     "CO2_emissions_t":24300,
     "Source_CO2_emissions":"Biogenic point source",
     "Source":"Bioethanol",
     "City":"Concepción",
     "Province":"Tucumán"
     }
   },
   {
     "type": "Feature",
     "geometry": {
        "type": "Point",
        "coordinates":  [ -59.39684115,-28.48761165 ]
     },
     "properties": {
     "Name":"Bioenergías Agropecuarias S.A.",
     "Company":"BIOENERGÍASAGROPECUARIAS S.A.",
     "Industry":"Bioethanol",
     "CO2_emissions_t":24750,
     "Source_CO2_emissions":"Biogenic point source",
     "Source":"Bioethanol",
     "City":"General Obligado",
     "Province":"Santa Fe"
     }
   },
   {
     "type": "Feature",
     "geometry": {
        "type": "Point",
        "coordinates":  [ -65.51695443,-27.22139848 ]
     },
     "properties": {
     "Name":"Ingenio Santa Rosa",
     "Company":"Bioenergía Santa Rosa S.A.",
     "Industry":"Bioethanol",
     "CO2_emissions_t":24300,
     "Source_CO2_emissions":"Biogenic point source",
     "Source":"Bioethanol",
     "City":"Monteros",
     "Province":"Tucumán"
     }
   },
   {
     "type": "Feature",
     "geometry": {
        "type": "Point",
        "coordinates":  [ -64.78800974,-23.82436777 ]
     },
     "properties": {
     "Name":"Ingenio Ledesma",
     "Company":"Bio Ledesma S.A.",
     "Industry":"Bioethanol",
     "CO2_emissions_t":74250,
     "Source_CO2_emissions":"Biogenic point source",
     "Source":"Bioethanol",
     "City":"Libertador General San Martin",
     "Province":"Jujuy"
     }
   },
   {
     "type": "Feature",
     "geometry": {
        "type": "Point",
        "coordinates":  [ -65.09802875,-24.6810765 ]
     },
     "properties": {
     "Name":"Bio San Isidro",
     "Company":"Bio San Isidro S.A.",
     "Industry":"Bioethanol",
     "CO2_emissions_t":10125,
     "Source_CO2_emissions":"Biogenic point source",
     "Source":"Bioethanol",
     "City":"Campo Santo",
     "Province":"Salta"
     }
   },
   {
     "type": "Feature",
     "geometry": {
        "type": "Point",
        "coordinates":  [ -65.20884372,-26.82826317 ]
     },
     "properties": {
     "Name":"Biotrinidad",
     "Company":"Biotrinidad S.A.",
     "Industry":"Bioethanol",
     "CO2_emissions_t":21600,
     "Source_CO2_emissions":"Biogenic point source",
     "Source":"Bioethanol",
     "City":"San Miguel de Tucumán",
     "Province":"Tucumán"
     }
   },
   {
     "type": "Feature",
     "geometry": {
        "type": "Point",
        "coordinates":  [ -65.08538766,-26.81731107 ]
     },
     "properties": {
     "Name":"Compañía Bioenergética La Florida",
     "Company":"Compañía Bioenergética La Florida S.A.",
     "Industry":"Bioethanol",
     "CO2_emissions_t":93750,
     "Source_CO2_emissions":"Biogenic point source",
     "Source":"Bioethanol",
     "City":"La Florida",
     "Province":"Tucumán"
     }
   },
   {
     "type": "Feature",
     "geometry": {
        "type": "Point",
        "coordinates":  [ -65.60985513,-27.4571049 ]
     },
     "properties": {
     "Name":"Energías Ecológicas de Tucumán",
     "Company":"Energías Ecológicas de Tucumán - Grupo Colombres",
     "Industry":"Bioethanol",
     "CO2_emissions_t":24750,
     "Source_CO2_emissions":"Biogenic point source",
     "Source":"Bioethanol",
     "City":"Aguilares",
     "Province":"Tucumán"
     }
   },
   {
     "type": "Feature",
     "geometry": {
        "type": "Point",
        "coordinates":  [ -65.30157927,-27.0235712 ]
     },
     "properties": {
     "Name":"Fronterita Energía S.A.",
     "Company":"Fronterita Energia S.A.",
     "Industry":"Bioethanol",
     "CO2_emissions_t":24000,
     "Source_CO2_emissions":"Biogenic point source",
     "Source":"Bioethanol",
     "City":"Juan XXIII",
     "Province":"Tucumán"
     }
   },
   {
     "type": "Feature",
     "geometry": {
        "type": "Point",
        "coordinates":  [ -64.9683694,-24.31258742 ]
     },
     "properties": {
     "Name":"Ingenio Río Grande",
     "Company":"Rio Grande Energia S.A.",
     "Industry":"Bioethanol",
     "CO2_emissions_t":16200,
     "Source_CO2_emissions":"Biogenic point source",
     "Source":"Bioethanol",
     "City":"La Mendieta",
     "Province":"Jujuy"
     }
   },
   {
     "type": "Feature",
     "geometry": {
        "type": "Point",
        "coordinates":  [ -63.16162482,-32.41597156 ]
     },
     "properties": {
     "Name":"ACA",
     "Company":"Aca Bio Cooperativa Ltda.",
     "Industry":"Bioethanol",
     "CO2_emissions_t":93750,
     "Source_CO2_emissions":"Biogenic point source",
     "Source":"Bioethanol",
     "City":"Villa María",
     "Province":"Córdoba"
     }
   },
   {
     "type": "Feature",
     "geometry": {
        "type": "Point",
        "coordinates":  [ -64.38329425,-33.17998671 ]
     },
     "properties": {
     "Name":"Bio IV",
     "Company":"Bioetanol Rio Cuarto A.A.",
     "Industry":"Bioethanol",
     "CO2_emissions_t":75000,
     "Source_CO2_emissions":"Biogenic point source",
     "Source":"Bioethanol",
     "City":"Río Cuarto",
     "Province":"Córdoba"
     }
   },
   {
     "type": "Feature",
     "geometry": {
        "type": "Point",
        "coordinates":  [ -66.36372385,-33.32563333 ]
     },
     "properties": {
     "Name":"Diaser",
     "Company":"Derivados San Luis",
     "Industry":"Bioethanol",
     "CO2_emissions_t":69300,
     "Source_CO2_emissions":"Biogenic point source",
     "Source":"Bioethanol",
     "City":"San Luis",
     "Province":"San Luis"
     }
   },
   {
     "type": "Feature",
     "geometry": {
        "type": "Point",
        "coordinates":  [ -64.18185929,-31.37191425 ]
     },
     "properties": {
     "Name":"Maíz Energía",
     "Company":"MAÍZ ENERGÍA S.A.",
     "Industry":"Bioethanol",
     "CO2_emissions_t":44100,
     "Source_CO2_emissions":"Biogenic point source",
     "Source":"Bioethanol",
     "City":"Ciudad de Córdoba",
     "Province":"Córdoba"
     }
   },
   {
     "type": "Feature",
     "geometry": {
        "type": "Point",
        "coordinates":  [ -63.71712134,-33.36537538 ]
     },
     "properties": {
     "Name":"Promaíz",
     "Company":"Promaiz S.A.",
     "Industry":"Bioethanol",
     "CO2_emissions_t":165000,
     "Source_CO2_emissions":"Biogenic point source",
     "Source":"Bioethanol",
     "City":"Alejandro Roca",
     "Province":"Córdoba"
     }
   },
   {
     "type": "Feature",
     "geometry": {
        "type": "Point",
        "coordinates":  [ -60.71499331,-31.62099492 ]
     },
     "properties": {
     "Name":"Vicentin",
     "Company":"Vicentin S.A.I.C.",
     "Industry":"Bioethanol",
     "CO2_emissions_t":86250,
     "Source_CO2_emissions":"Biogenic point source",
     "Source":"Bioethanol",
     "City":"Avellaneda",
     "Province":"Santa Fe"
     }
   },
   {
     "type": "Feature",
     "geometry": {
        "type": "Point",
        "coordinates":  [ -64.29616772,-23.2022408 ]
     },
     "properties": {
     "Name":"Seaboard Energía Renovables y Alimentos",
     "Company":"Seaboard Energía Renovables y Alimentos",
     "Industry":"Bioethanol",
     "CO2_emissions_t":185625,
     "Source_CO2_emissions":"Biogenic point source",
     "Source":"Bioethanol",
     "City":"Orán",
     "Province":"Salta"
     }
   },
   {
     "type": "Feature",
     "geometry": {
        "type": "Point",
        "coordinates":  [ -65.14264897,-26.84424771 ]
     },
     "properties": {
     "Name":"Bioenergética Leales S.A.",
     "Company":"Bioenergética Leales S.A.",
     "Industry":"Bioethanol",
     "CO2_emissions_t":31500,
     "Source_CO2_emissions":"Biogenic point source",
     "Source":"Bioethanol",
     "City":"Cevil Pozo",
     "Province":"Tucumán"
     }
   },
   {
     "type": "Feature",
     "geometry": {
        "type": "Point",
        "coordinates":  [ -65.15279485,-26.83469939 ]
     },
     "properties": {
     "Name":"Bio Atar S.A.",
     "Company":"Bio Atar S.A.",
     "Industry":"Bioethanol",
     "CO2_emissions_t":49500,
     "Source_CO2_emissions":"Biogenic point source",
     "Source":"Bioethanol",
     "City":"Alderetes",
     "Province":"Tucumán"
     }
   },
   {
     "type": "Feature",
     "geometry": {
        "type": "Point",
        "coordinates":  [ -54.63376934,-25.97573961 ]
     },
     "properties": {
     "Name":"Arauco Argentina S.A. ",
     "Company":"Arauco Argentina S.A. ",
     "Industry":"Pulp and paper",
     "CO2_emissions_t":875000,
     "Source_CO2_emissions":"Industrial point source",
     "Source":"Cellulose pulp",
     "City":"Puerto Esperanza",
     "Province":"Misiones"
     }
   },
   {
     "type": "Feature",
     "geometry": {
        "type": "Point",
        "coordinates":  [ -60.70218034,-32.73646168 ]
     },
     "properties": {
     "Name":"Celulosa Argentina S.A.",
     "Company":"Celulosa Argentina S.A.",
     "Industry":"Pulp and paper",
     "CO2_emissions_t":416400,
     "Source_CO2_emissions":"Industrial point source",
     "Source":"Cellulose pulp",
     "City":"Capitan Bermudez",
     "Province":"Santa Fe"
     }
   },
   {
     "type": "Feature",
     "geometry": {
        "type": "Point",
        "coordinates":  [ -59.62774924,-33.7216403 ]
     },
     "properties": {
     "Name":"Papel Prensa S.A.I.C.F.",
     "Company":"Papel Prensa S.A.I.C.F.",
     "Industry":"Pulp and paper",
     "CO2_emissions_t":421762.5,
     "Source_CO2_emissions":"Industrial point source",
     "Source":"Cellulose pulp",
     "City":"San Pedro",
     "Province":"Buenos Aires"
     }
   },
   {
     "type": "Feature",
     "geometry": {
        "type": "Point",
        "coordinates":  [ -55.11980442,-26.93561856 ]
     },
     "properties": {
     "Name":"Papel Misionero",
     "Company":"Papel Misionero",
     "Industry":"Pulp and paper",
     "CO2_emissions_t":272137.5,
     "Source_CO2_emissions":"Industrial point source",
     "Source":"Cellulose pulp",
     "City":"Puerto Leoni",
     "Province":"Misiones"
     }
   },
   {
     "type": "Feature",
     "geometry": {
        "type": "Point",
        "coordinates":  [ -65.23014529,-24.23195846 ]
     },
     "properties": {
     "Name":"Papelera del NOA S.A.",
     "Company":"Papelera del NOA S.A.",
     "Industry":"Pulp and paper",
     "CO2_emissions_t":85425,
     "Source_CO2_emissions":"Industrial point source",
     "Source":"Cellulose pulp",
     "City":"Río Blanco",
     "Province":"Jujuy"
     }
   },
   {
     "type": "Feature",
     "geometry": {
        "type": "Point",
        "coordinates":  [ -64.79551334,-23.82765684 ]
     },
     "properties": {
     "Name":"Fábrica de Papel Ledesma",
     "Company":"Fábrica de Papel Ledesma",
     "Industry":"Pulp and paper",
     "CO2_emissions_t":212250,
     "Source_CO2_emissions":"Industrial point source",
     "Source":"Cellulose pulp",
     "City":"Libertador General San Martín",
     "Province":"Jujuy"
     }
   },
   {
     "type": "Feature",
     "geometry": {
        "type": "Point",
        "coordinates":  { }
     },
     "properties": {
     "Name":"Fana Química SA",
     "Company":"Fana Química SA",
     "Industry":"Pulp and paper",
     "CO2_emissions_t":4000,
     "Source_CO2_emissions":"Industrial point source",
     "Source":"Cellulose pulp",
     "City":"San José",
     "Province":"Entre Ríos"
     }
   },
   {
     "type": "Feature",
     "geometry": {
        "type": "Point",
        "coordinates":  [ -60.29810249,-37.03607735 ]
     },
     "properties": {
     "Name":"Fábrica L'Amalí",
     "Company":"Loma Negra",
     "Industry":"Cement",
     "CO2_emissions_t":2442352.94,
     "Source_CO2_emissions":"Industrial point source",
     "Source":"Cement",
     "City":"Olavarría",
     "Province":"Buenos Aires"
     }
   },
   {
     "type": "Feature",
     "geometry": {
        "type": "Point",
        "coordinates":  [ -60.16484634,-36.93725544 ]
     },
     "properties": {
     "Name":"Fábrica Olavarría",
     "Company":"Loma Negra",
     "Industry":"Cement",
     "CO2_emissions_t":1144852.94,
     "Source_CO2_emissions":"Industrial point source",
     "Source":"Cement",
     "City":"Olavarría",
     "Province":"Buenos Aires"
     }
   },
   {
     "type": "Feature",
     "geometry": {
        "type": "Point",
        "coordinates":  [ -60.16503118,-36.9383899 ]
     },
     "properties": {
     "Name":"Fábrica Sierras Bayas",
     "Company":"Loma Negra",
     "Industry":"Cement",
     "CO2_emissions_t":null,
     "Source_CO2_emissions":"Industrial point source",
     "Source":"Cement",
     "City":"Sierras Bayas",
     "Province":"Buenos Aires"
     }
   },
   {
     "type": "Feature",
     "geometry": {
        "type": "Point",
        "coordinates":  [ -59.388828,-37.68283558 ]
     },
     "properties": {
     "Name":"Fábrica Barker",
     "Company":"Loma Negra",
     "Industry":"Cement",
     "CO2_emissions_t":null,
     "Source_CO2_emissions":"Industrial point source",
     "Source":"Cement",
     "City":"Benito Juarez",
     "Province":"Buenos Aires"
     }
   },
   {
     "type": "Feature",
     "geometry": {
        "type": "Point",
        "coordinates":  [ -60.15325117,-33.38022978 ]
     },
     "properties": {
     "Name":"Planta Ramallo",
     "Company":"Loma Negra",
     "Industry":"Cement",
     "CO2_emissions_t":null,
     "Source_CO2_emissions":"Industrial point source",
     "Source":"Cement",
     "City":"Ramallo",
     "Province":"Buenos Aires"
     }
   },
   {
     "type": "Feature",
     "geometry": {
        "type": "Point",
        "coordinates":  [ -65.21491434,-28.46620076 ]
     },
     "properties": {
     "Name":"Fábrica Catamarca",
     "Company":"Loma Negra",
     "Industry":"Cement",
     "CO2_emissions_t":1373823.53,
     "Source_CO2_emissions":"Industrial point source",
     "Source":"Cement",
     "City":"El Alto",
     "Province":"Catamarca"
     }
   },
   {
     "type": "Feature",
     "geometry": {
        "type": "Point",
        "coordinates":  [ -68.67430483,-31.54717154 ]
     },
     "properties": {
     "Name":"Fábrica San Juan",
     "Company":"Loma Negra",
     "Industry":"Cement",
     "CO2_emissions_t":null,
     "Source_CO2_emissions":"Industrial point source",
     "Source":"Cement",
     "City":"Rivadavia",
     "Province":"San Juan"
     }
   },
   {
     "type": "Feature",
     "geometry": {
        "type": "Point",
        "coordinates":  [ -70.03773085,-38.89661841 ]
     },
     "properties": {
     "Name":"Fábrica Zapala",
     "Company":"Loma Negra",
     "Industry":"Cement",
     "CO2_emissions_t":305294.12,
     "Source_CO2_emissions":"Industrial point source",
     "Source":"Cement",
     "City":"Zapala",
     "Province":"Neusaquén"
     }
   },
   {
     "type": "Feature",
     "geometry": {
        "type": "Point",
        "coordinates":  [ -58.64295248,-34.95797683 ]
     },
     "properties": {
     "Name":"Fábrica LomaSer",
     "Company":"Loma Negra",
     "Industry":"Cement",
     "CO2_emissions_t":null,
     "Source_CO2_emissions":"Industrial point source",
     "Source":"Cement",
     "City":"Vicente Casares",
     "Province":"Buenos Aires"
     }
   },
   {
     "type": "Feature",
     "geometry": {
        "type": "Point",
        "coordinates":  [ -68.83721964,-32.7406102 ]
     },
     "properties": {
     "Name":"Planta Holcim Capdeville Mendoza",
     "Company":"HOLCIM",
     "Industry":"Cement",
     "CO2_emissions_t":534264.71,
     "Source_CO2_emissions":"Industrial point source",
     "Source":"Cement",
     "City":"Las Heras",
     "Province":"Mendoza"
     }
   },
   {
     "type": "Feature",
     "geometry": {
        "type": "Point",
        "coordinates":  [ -64.35835512,-31.47714495 ]
     },
     "properties": {
     "Name":"Planta Holcim Malagueño",
     "Company":"HOLCIM",
     "Industry":"Cement",
     "CO2_emissions_t":2366029.41,
     "Source_CO2_emissions":"Industrial point source",
     "Source":"Cement",
     "City":"Malagueño",
     "Province":"Córdoba"
     }
   },
   {
     "type": "Feature",
     "geometry": {
        "type": "Point",
        "coordinates":  [ -64.9570812,-24.49038325 ]
     },
     "properties": {
     "Name":"Planta Holcim Puesto Viejo",
     "Company":"HOLCIM",
     "Industry":"Cement",
     "CO2_emissions_t":763235.29,
     "Source_CO2_emissions":"Industrial point source",
     "Source":"Cement",
     "City":"Puesto Viejo",
     "Province":"Jujuy"
     }
   },
   {
     "type": "Feature",
     "geometry": {
        "type": "Point",
        "coordinates":  [ -59.02034634,-34.14560719 ]
     },
     "properties": {
     "Name":"Planta Holcim Campana",
     "Company":"HOLCIM",
     "Industry":"Cement",
     "CO2_emissions_t":null,
     "Source_CO2_emissions":"Industrial point source",
     "Source":"Cement",
     "City":"Campana",
     "Province":"Buenos Aires"
     }
   },
   {
     "type": "Feature",
     "geometry": {
        "type": "Point",
        "coordinates":  [ -59.00184583,-34.16978546 ]
     },
     "properties": {
     "Name":"Planta Campana",
     "Company":"Cementos Avellaneda",
     "Industry":"Cement",
     "CO2_emissions_t":null,
     "Source_CO2_emissions":"Industrial point source",
     "Source":"Cement",
     "City":"Campana",
     "Province":"Buenos Aires"
     }
   },
   {
     "type": "Feature",
     "geometry": {
        "type": "Point",
        "coordinates":  { }
     },
     "properties": {
     "Name":"San Jacinto",
     "Company":"Cementos Avellaneda",
     "Industry":"Cement",
     "CO2_emissions_t":1831764.71,
     "Source_CO2_emissions":"Industrial point source",
     "Source":"Cement",
     "City":"Olavarría",
     "Province":"Buenos Aires"
     }
   },
   {
     "type": "Feature",
     "geometry": {
        "type": "Point",
        "coordinates":  { }
     },
     "properties": {
     "Name":"El Grande",
     "Company":"Cementos Avellaneda",
     "Industry":"Cement",
     "CO2_emissions_t":839558.82,
     "Source_CO2_emissions":"Industrial point source",
     "Source":"Cement",
     "City":"La Calera",
     "Province":"San Luis"
     }
   },
   {
     "type": "Feature",
     "geometry": {
        "type": "Point",
        "coordinates":  [ -67.4236816,-45.80214455 ]
     },
     "properties": {
     "Name":"Fábrica Comodoro Rivadavia",
     "Company":"PCR",
     "Industry":"Cement",
     "CO2_emissions_t":null,
     "Source_CO2_emissions":"Industrial point source",
     "Source":"Cement",
     "City":"Comodoro Rivadavia",
     "Province":"Chubut"
     }
   },
   {
     "type": "Feature",
     "geometry": {
        "type": "Point",
        "coordinates":  [ -67.92954422,-46.78713825 ]
     },
     "properties": {
     "Name":"Fábrica Pico Truncado",
     "Company":"PCR",
     "Industry":"Cement",
     "CO2_emissions_t":457941.18,
     "Source_CO2_emissions":"Industrial point source",
     "Source":"Cement",
     "City":"Pico Truncado",
     "Province":"Santa Cruz"
     }
   },
   {
     "type": "Feature",
     "geometry": {
        "type": "Point",
        "coordinates":  [ -60.15945416,-33.32260493 ]
     },
     "properties": {
     "Name":"Planta siderúrgica Ternium Siderar",
     "Company":"Ternium Argentina S.A.",
     "Industry":"Steel",
     "CO2_emissions_t":5286272,
     "Source_CO2_emissions":"Industrial point source",
     "Source":"Slabs and hot rolled flat products . cold rolled flat products . tinplate",
     "City":"Ramallo/San Nicolas",
     "Province":"Buenos Aires"
     }
   },
   {
     "type": "Feature",
     "geometry": {
        "type": "Point",
        "coordinates":  [ -57.92924997,-34.80606584 ]
     },
     "properties": {
     "Name":"",
     "Company":"Ternium Argentina S.A.",
     "Industry":"Steel",
     "CO2_emissions_t":null,
     "Source_CO2_emissions":"Industrial point source",
     "Source":"Cold rolled flat products ",
     "City":"Ensenada",
     "Province":"Buenos Aires"
     }
   },
   {
     "type": "Feature",
     "geometry": {
        "type": "Point",
        "coordinates":  [ -58.63146321,-34.58262707 ]
     },
     "properties": {
     "Name":"",
     "Company":"Ternium Argentina S.A.",
     "Industry":"Steel",
     "CO2_emissions_t":null,
     "Source_CO2_emissions":"Industrial point source",
     "Source":"Galvanized. electro zinced and prepainted ",
     "City":"Haedo",
     "Province":"Buenos Aires"
     }
   },
   {
     "type": "Feature",
     "geometry": {
        "type": "Point",
        "coordinates":  [ -58.51610678,-34.79942658 ]
     },
     "properties": {
     "Name":"",
     "Company":"Ternium Argentina S.A.",
     "Industry":"Steel",
     "CO2_emissions_t":null,
     "Source_CO2_emissions":"Industrial point source",
     "Source":"Galvanized. electro zinced and prepainted ",
     "City":"Canning",
     "Province":"Buenos Aires"
     }
   },
   {
     "type": "Feature",
     "geometry": {
        "type": "Point",
        "coordinates":  [ -58.18102379,-34.72722318 ]
     },
     "properties": {
     "Name":"",
     "Company":"Ternium Argentina S.A.",
     "Industry":"Steel",
     "CO2_emissions_t":null,
     "Source_CO2_emissions":"Industrial point source",
     "Source":"Galvanized. electro zinced and prepainted ",
     "City":"Florencio Varela",
     "Province":"Buenos Aires"
     }
   },
   {
     "type": "Feature",
     "geometry": {
        "type": "Point",
        "coordinates":  [ -60.70918231,-32.88917097 ]
     },
     "properties": {
     "Name":"",
     "Company":"Ternium Argentina S.A.",
     "Industry":"Steel",
     "CO2_emissions_t":null,
     "Source_CO2_emissions":"Industrial point source",
     "Source":"Seam pipes",
     "City":"Rosario",
     "Province":"Santa Fe"
     }
   },
   {
     "type": "Feature",
     "geometry": {
        "type": "Point",
        "coordinates":  [ -58.977388,-34.152554 ]
     },
     "properties": {
     "Name":"Planta siderúrgica TenarisSiderca",
     "Company":"Ternaris S.A. / Siderca S.A.I.C.",
     "Industry":"Steel",
     "CO2_emissions_t":650000,
     "Source_CO2_emissions":"Industrial point source",
     "Source":"Seamless pipes ",
     "City":"Campana",
     "Province":"Buenos Aires"
     }
   },
   {
     "type": "Feature",
     "geometry": {
        "type": "Point",
        "coordinates":  [ -58.40681255,-34.66288154 ]
     },
     "properties": {
     "Name":"",
     "Company":"Ternaris S.A. / Siderca S.A.I.C.",
     "Industry":"Steel",
     "CO2_emissions_t":null,
     "Source_CO2_emissions":"Industrial point source",
     "Source":"Seam pipes ",
     "City":"Valentin Alsina",
     "Province":"Buenos Aires"
     }
   },
   {
     "type": "Feature",
     "geometry": {
        "type": "Point",
        "coordinates":  [ -60.31761739,-33.23981167 ]
     },
     "properties": {
     "Name":"",
     "Company":"Ternaris S.A. / Siderca S.A.I.C.",
     "Industry":"Steel",
     "CO2_emissions_t":null,
     "Source_CO2_emissions":"Industrial point source",
     "Source":"Seam pipes ",
     "City":"Villa Constitución",
     "Province":"Santa Fe"
     }
   },
   {
     "type": "Feature",
     "geometry": {
        "type": "Point",
        "coordinates":  [ -58.54186997,-34.69235624 ]
     },
     "properties": {
     "Name":"",
     "Company":"Ternaris S.A. / Siderca S.A.I.C.",
     "Industry":"Steel",
     "CO2_emissions_t":null,
     "Source_CO2_emissions":"Industrial point source",
     "Source":"Sucker rods and accesories ",
     "City":"Villa Mercedes",
     "Province":"San Luis"
     }
   },
   {
     "type": "Feature",
     "geometry": {
        "type": "Point",
        "coordinates":  [ -60.292472,-33.256309 ]
     },
     "properties": {
     "Name":"Planta siderúrgia ArcelorMittal Acindar",
     "Company":"Acindar Industria Argentina de Aceros S.A.",
     "Industry":"Steel",
     "CO2_emissions_t":1015000,
     "Source_CO2_emissions":"Industrial point source",
     "Source":"Billets. rolled non-flat products ",
     "City":"Villa Constitución",
     "Province":"Santa Fe"
     }
   },
   {
     "type": "Feature",
     "geometry": {
        "type": "Point",
        "coordinates":  [ -60.72206377,-32.97077123 ]
     },
     "properties": {
     "Name":"",
     "Company":"Acindar Industria Argentina de Aceros S.A.",
     "Industry":"Steel",
     "CO2_emissions_t":null,
     "Source_CO2_emissions":"Industrial point source",
     "Source":"Billets. rolled non-flat products ",
     "City":"Rosario",
     "Province":"Santa Fe"
     }
   },
   {
     "type": "Feature",
     "geometry": {
        "type": "Point",
        "coordinates":  { }
     },
     "properties": {
     "Name":"",
     "Company":"Acindar Industria Argentina de Aceros S.A.",
     "Industry":"Steel",
     "CO2_emissions_t":null,
     "Source_CO2_emissions":"Industrial point source",
     "Source":"Billets. rolled non-flat products ",
     "City":"La Tablada",
     "Province":"Buenos Aires"
     }
   },
   {
     "type": "Feature",
     "geometry": {
        "type": "Point",
        "coordinates":  [ -60.25863236,-33.34700797 ]
     },
     "properties": {
     "Name":"",
     "Company":"Acindar Industria Argentina de Aceros S.A.",
     "Industry":"Steel",
     "CO2_emissions_t":null,
     "Source_CO2_emissions":"Industrial point source",
     "Source":"Billets. rolled non-flat products ",
     "City":"San Nicolas",
     "Province":"Buenos Aires"
     }
   },
   {
     "type": "Feature",
     "geometry": {
        "type": "Point",
        "coordinates":  [ -65.46444205,-33.72087734 ]
     },
     "properties": {
     "Name":"",
     "Company":"Acindar Industria Argentina de Aceros S.A.",
     "Industry":"Steel",
     "CO2_emissions_t":null,
     "Source_CO2_emissions":"Industrial point source",
     "Source":"Billets. rolled non-flat products ",
     "City":"Villa Mercedes",
     "Province":"San Luis"
     }
   },
   {
     "type": "Feature",
     "geometry": {
        "type": "Point",
        "coordinates":  [ -60.4520892,-35.13711789 ]
     },
     "properties": {
     "Name":"Planta Siderurgica ACERBRAG",
     "Company":"Acerbrag S.A. (grupo brasileño Votorantim)",
     "Industry":"Steel",
     "CO2_emissions_t":null,
     "Source_CO2_emissions":"Industrial point source",
     "Source":"Rolled non-flat products ",
     "City":"Bragado",
     "Province":"Buenos Aires"
     }
   },
   {
     "type": "Feature",
     "geometry": {
        "type": "Point",
        "coordinates":  [ -65.19816083,-24.2460988 ]
     },
     "properties": {
     "Name":"Aceros Zapla",
     "Company":"Aceros Zapla S.A.",
     "Industry":"Steel",
     "CO2_emissions_t":null,
     "Source_CO2_emissions":"Industrial point source",
     "Source":"Billets. rolled non-flat products ",
     "City":"Palpalá",
     "Province":"Jujuy"
     }
   },
   {
     "type": "Feature",
     "geometry": {
        "type": "Point",
        "coordinates":  [ -60.7588733,-32.9912336 ]
     },
     "properties": {
     "Name":"Planta siderúrgica Gerdau Sipar Pérez",
     "Company":"Gerdau SA",
     "Industry":"Steel",
     "CO2_emissions_t":103031,
     "Source_CO2_emissions":"Industrial point source",
     "Source":"Rolled non-flat products ",
     "City":"Pérez",
     "Province":"Santa Fe"
     }
   },
   {
     "type": "Feature",
     "geometry": {
        "type": "Point",
        "coordinates":  [ -65.04839927,-42.7438848 ]
     },
     "properties": {
     "Name":"ALUAR SA - GENERADOR",
     "Company":"Aluar",
     "Industry":"Thermal power plant",
     "CO2_emissions_t":210445,
     "Source_CO2_emissions":"Industrial point source",
     "Source":"Electrical energy",
     "City":"Puerto Madryn",
     "Province":"Chubut"
     }
   },
   {
     "type": "Feature",
     "geometry": {
        "type": "Point",
        "coordinates":  { }
     },
     "properties": {
     "Name":"ARCOR MARIO SEVESO ARROYITO",
     "Company":"",
     "Industry":"Thermal power plant",
     "CO2_emissions_t":93267,
     "Source_CO2_emissions":"Industrial point source",
     "Source":"",
     "City":"",
     "Province":"Córdoba"
     }
   },
   {
     "type": "Feature",
     "geometry": {
        "type": "Point",
        "coordinates":  { }
     },
     "properties": {
     "Name":"C. TERMICAS MENDOZA PLUS",
     "Company":"",
     "Industry":"Thermal power plant",
     "CO2_emissions_t":788702,
     "Source_CO2_emissions":"Industrial point source",
     "Source":"",
     "City":"",
     "Province":"Mendoza"
     }
   },
   {
     "type": "Feature",
     "geometry": {
        "type": "Point",
        "coordinates":  { }
     },
     "properties": {
     "Name":"C. TERMICAS MENDOZA SA",
     "Company":"",
     "Industry":"Thermal power plant",
     "CO2_emissions_t":297745,
     "Source_CO2_emissions":"Industrial point source",
     "Source":"",
     "City":"",
     "Province":"Mendoza"
     }
   },
   {
     "type": "Feature",
     "geometry": {
        "type": "Point",
        "coordinates":  { }
     },
     "properties": {
     "Name":"C.COSTA ATLANTICA",
     "Company":"",
     "Industry":"Thermal power plant",
     "CO2_emissions_t":509899,
     "Source_CO2_emissions":"Industrial point source",
     "Source":"",
     "City":"",
     "Province":"Buenos Aires"
     }
   },
   {
     "type": "Feature",
     "geometry": {
        "type": "Point",
        "coordinates":  { }
     },
     "properties": {
     "Name":"C.T. AES PARANA",
     "Company":"",
     "Industry":"Thermal power plant",
     "CO2_emissions_t":1717893,
     "Source_CO2_emissions":"Industrial point source",
     "Source":"",
     "City":"",
     "Province":"Buenos Aires"
     }
   },
   {
     "type": "Feature",
     "geometry": {
        "type": "Point",
        "coordinates":  [ -68.35746075,-38.93531878 ]
     },
     "properties": {
     "Name":"C.T. AGUA DEL CAJON",
     "Company":"",
     "Industry":"Thermal power plant",
     "CO2_emissions_t":1108638,
     "Source_CO2_emissions":"Industrial point source",
     "Source":"Electrical energy",
     "City":"Neuquén",
     "Province":"Neuquén"
     }
   },
   {
     "type": "Feature",
     "geometry": {
        "type": "Point",
        "coordinates":  [ -58.40568505,-34.83766034 ]
     },
     "properties": {
     "Name":"C.T. ALMIRANTE BROWN",
     "Company":"Excell Power S.R.L.",
     "Industry":"Thermal power plant",
     "CO2_emissions_t":7094,
     "Source_CO2_emissions":"Industrial point source",
     "Source":"Electrical energy",
     "City":"Burazco",
     "Province":"Buenos Aires"
     }
   },
   {
     "type": "Feature",
     "geometry": {
        "type": "Point",
        "coordinates":  [ -68.60637825,-38.51178974 ]
     },
     "properties": {
     "Name":"C.T. LOMA DE LA LATA S.A.",
     "Company":"C.T. LOMA DE LA LATA S.A.",
     "Industry":"Thermal power plant",
     "CO2_emissions_t":1779653,
     "Source_CO2_emissions":"Industrial point source",
     "Source":"Electrical energy",
     "City":"Neuquén",
     "Province":"Neuquén"
     }
   },
   {
     "type": "Feature",
     "geometry": {
        "type": "Point",
        "coordinates":  [ -67.44427712,-45.81390612 ]
     },
     "properties": {
     "Name":"C.T. PATAGONICAS SA",
     "Company":"CENTRALES TERMICAS PATAGONICAS S.A.",
     "Industry":"Thermal power plant",
     "CO2_emissions_t":27712,
     "Source_CO2_emissions":"Industrial point source",
     "Source":"Electrical energy",
     "City":"Comodoro Rivadavia",
     "Province":"Chubut"
     }
   },
   {
     "type": "Feature",
     "geometry": {
        "type": "Point",
        "coordinates":  [ -65.05151496,-24.74271171 ]
     },
     "properties": {
     "Name":"C.T. SALTA (TERMOANDES)",
     "Company":"AES",
     "Industry":"Thermal power plant",
     "CO2_emissions_t":1004183,
     "Source_CO2_emissions":"Industrial point source",
     "Source":"Electrical energy",
     "City":"Cobos",
     "Province":"Salta"
     }
   },
   {
     "type": "Feature",
     "geometry": {
        "type": "Point",
        "coordinates":  [ -68.02174487,-38.95161594 ]
     },
     "properties": {
     "Name":"C.TERMICA ALTO VALLE",
     "Company":"",
     "Industry":"Thermal power plant",
     "CO2_emissions_t":198282,
     "Source_CO2_emissions":"Industrial point source",
     "Source":"Electrical energy",
     "City":"Neuquén",
     "Province":"Neuquén"
     }
   },
   {
     "type": "Feature",
     "geometry": {
        "type": "Point",
        "coordinates":  { }
     },
     "properties": {
     "Name":"C.TERMICA GUEMES S.A.",
     "Company":"",
     "Industry":"Thermal power plant",
     "CO2_emissions_t":139062,
     "Source_CO2_emissions":"Industrial point source",
     "Source":"",
     "City":"",
     "Province":"Salta"
     }
   },
   {
     "type": "Feature",
     "geometry": {
        "type": "Point",
        "coordinates":  [ -60.17476179,-33.35809074 ]
     },
     "properties": {
     "Name":"C.TERMICA SAN NICOLAS",
     "Company":"AES",
     "Industry":"Thermal power plant",
     "CO2_emissions_t":2158549,
     "Source_CO2_emissions":"Industrial point source",
     "Source":"Electrical energy",
     "City":"San Nicolás de Los Arroyos",
     "Province":"Buenos Aires"
     }
   },
   {
     "type": "Feature",
     "geometry": {
        "type": "Point",
        "coordinates":  { }
     },
     "properties": {
     "Name":"C.TERMICA SORRENTO",
     "Company":"",
     "Industry":"Thermal power plant",
     "CO2_emissions_t":20821,
     "Source_CO2_emissions":"Industrial point source",
     "Source":"",
     "City":"",
     "Province":"Santa Fe"
     }
   },
   {
     "type": "Feature",
     "geometry": {
        "type": "Point",
        "coordinates":  { }
     },
     "properties": {
     "Name":"CAPEX S.A. AUTOGENERADOR",
     "Company":"",
     "Industry":"Thermal power plant",
     "CO2_emissions_t":1075683,
     "Source_CO2_emissions":"Industrial point source",
     "Source":"",
     "City":"",
     "Province":"Neuquén"
     }
   },
   {
     "type": "Feature",
     "geometry": {
        "type": "Point",
        "coordinates":  [ -57.93335436,-34.88987358 ]
     },
     "properties": {
     "Name":"CENTRAL DIQUE S.A.",
     "Company":"CENTRAL DIQUE S.A.",
     "Industry":"Thermal power plant",
     "CO2_emissions_t":478,
     "Source_CO2_emissions":"Industrial point source",
     "Source":"Electrical energy",
     "City":"Ensenada",
     "Province":"Buenos Aires"
     }
   },
   {
     "type": "Feature",
     "geometry": {
        "type": "Point",
        "coordinates":  [ -58.34352059,-34.65327861 ]
     },
     "properties": {
     "Name":"CENTRAL DOCK SUD",
     "Company":"Central Dock Sud",
     "Industry":"Thermal power plant",
     "CO2_emissions_t":2101890,
     "Source_CO2_emissions":"Industrial point source",
     "Source":"Electrical energy",
     "City":"Dock Sud",
     "Province":"Buenos Aires"
     }
   },
   {
     "type": "Feature",
     "geometry": {
        "type": "Point",
        "coordinates":  [ -62.25607271,-38.78482523 ]
     },
     "properties": {
     "Name":"CENTRAL PIEDRA BUENA S.A.",
     "Company":"Pampa Energía",
     "Industry":"Thermal power plant",
     "CO2_emissions_t":243763,
     "Source_CO2_emissions":"Industrial point source",
     "Source":"Electrical energy",
     "City":"Ingeniero White",
     "Province":"Buenos Aires"
     }
   },
   {
     "type": "Feature",
     "geometry": {
        "type": "Point",
        "coordinates":  [ -68.98071723,-33.05433167 ]
     },
     "properties": {
     "Name":"CENTRAL PUERTO SA",
     "Company":"Central Puerto S.A.",
     "Industry":"Thermal power plant",
     "CO2_emissions_t":3481800,
     "Source_CO2_emissions":"Industrial point source",
     "Source":"Electrical energy",
     "City":"Luján de Cuyo",
     "Province":"Mendoza"
     }
   },
   {
     "type": "Feature",
     "geometry": {
        "type": "Point",
        "coordinates":  { }
     },
     "properties": {
     "Name":"CENTRAL TÉRMICA LOMITA AUTOG.",
     "Company":"",
     "Industry":"Thermal power plant",
     "CO2_emissions_t":59300,
     "Source_CO2_emissions":"Industrial point source",
     "Source":"",
     "City":"",
     "Province":"Neuquén"
     }
   },
   {
     "type": "Feature",
     "geometry": {
        "type": "Point",
        "coordinates":  [ -63.76700533,-22.35004604 ]
     },
     "properties": {
     "Name":"CENTRAL TERMICA PIQUIRENDA",
     "Company":"Pampa Energía",
     "Industry":"Thermal power plant",
     "CO2_emissions_t":25963,
     "Source_CO2_emissions":"Industrial point source",
     "Source":"Electrical energy",
     "City":"Piquirenda",
     "Province":"Salta"
     }
   },
   {
     "type": "Feature",
     "geometry": {
        "type": "Point",
        "coordinates":  { }
     },
     "properties": {
     "Name":"COOP. MNO. MORENO BS. AS.GENER",
     "Company":"",
     "Industry":"Thermal power plant",
     "CO2_emissions_t":668,
     "Source_CO2_emissions":"Industrial point source",
     "Source":"",
     "City":"",
     "Province":"Buenos Aires"
     }
   },
   {
     "type": "Feature",
     "geometry": {
        "type": "Point",
        "coordinates":  [ -57.54553583,-38.04949391 ]
     },
     "properties": {
     "Name":"CT 9 de JULIO C Cost ATLANTICA",
     "Company":"Centrales de la Costa Atlántica S.A.",
     "Industry":"Thermal power plant",
     "CO2_emissions_t":221258,
     "Source_CO2_emissions":"Industrial point source",
     "Source":"Electrical energy",
     "City":"Mar del Plata",
     "Province":"Buenos Aires"
     }
   },
   {
     "type": "Feature",
     "geometry": {
        "type": "Point",
        "coordinates":  { }
     },
     "properties": {
     "Name":"CT ACONCAGUA ENERGÍA AUTOGENER",
     "Company":"",
     "Industry":"Thermal power plant",
     "CO2_emissions_t":17,
     "Source_CO2_emissions":"Industrial point source",
     "Source":"",
     "City":"",
     "Province":"Mendoza"
     }
   },
   {
     "type": "Feature",
     "geometry": {
        "type": "Point",
        "coordinates":  { }
     },
     "properties": {
     "Name":"CT ALEM - AGGREKO",
     "Company":"",
     "Industry":"Thermal power plant",
     "CO2_emissions_t":35577,
     "Source_CO2_emissions":"Industrial point source",
     "Source":"",
     "City":"",
     "Province":"Misiones"
     }
   },
   {
     "type": "Feature",
     "geometry": {
        "type": "Point",
        "coordinates":  [ -68.89151146,-33.3133564 ]
     },
     "properties": {
     "Name":"CT ANCHORIS - METHAX",
     "Company":"EMESA",
     "Industry":"Thermal power plant",
     "CO2_emissions_t":50825,
     "Source_CO2_emissions":"Industrial point source",
     "Source":"Electrical energy",
     "City":"Tupungato",
     "Province":"Mendoza"
     }
   },
   {
     "type": "Feature",
     "geometry": {
        "type": "Point",
        "coordinates":  [ -62.85560319,-28.44584131 ]
     },
     "properties": {
     "Name":"CT AÑATUYA - SULLAIR",
     "Company":"",
     "Industry":"Thermal power plant",
     "CO2_emissions_t":11557,
     "Source_CO2_emissions":"Industrial point source",
     "Source":"Electrical energy",
     "City":"Añatuya",
     "Province":"Santiago del Estero"
     }
   },
   {
     "type": "Feature",
     "geometry": {
        "type": "Point",
        "coordinates":  [ -62.85560319,-28.44584131 ]
     },
     "properties": {
     "Name":"CT AÑATUYA II - SULLAIR",
     "Company":"",
     "Industry":"Thermal power plant",
     "CO2_emissions_t":4840,
     "Source_CO2_emissions":"Industrial point source",
     "Source":"Electrical energy",
     "City":"Añatuya",
     "Province":"Santiago del Estero"
     }
   },
   {
     "type": "Feature",
     "geometry": {
        "type": "Point",
        "coordinates":  [ -54.86344241,-27.09123769 ]
     },
     "properties": {
     "Name":"CT ARISTOBU.DEL VALLE-SOENERGY",
     "Company":"",
     "Industry":"Thermal power plant",
     "CO2_emissions_t":24495,
     "Source_CO2_emissions":"Industrial point source",
     "Source":"Electrical energy",
     "City":"Aristóbulo del Valle",
     "Province":"Misiones"
     }
   },
   {
     "type": "Feature",
     "geometry": {
        "type": "Point",
        "coordinates":  { }
     },
     "properties": {
     "Name":"CT ARRECIFES-AGGREKO",
     "Company":"",
     "Industry":"Thermal power plant",
     "CO2_emissions_t":8081,
     "Source_CO2_emissions":"Industrial point source",
     "Source":"",
     "City":"",
     "Province":"Buenos Aires"
     }
   },
   {
     "type": "Feature",
     "geometry": {
        "type": "Point",
        "coordinates":  { }
     },
     "properties": {
     "Name":"CT BANDERA SgoEstero - ENARSA",
     "Company":"",
     "Industry":"Thermal power plant",
     "CO2_emissions_t":4539,
     "Source_CO2_emissions":"Industrial point source",
     "Source":"",
     "City":"",
     "Province":"Santiago del Estero"
     }
   },
   {
     "type": "Feature",
     "geometry": {
        "type": "Point",
        "coordinates":  { }
     },
     "properties": {
     "Name":"CT BARILOCHE",
     "Company":"",
     "Industry":"Thermal power plant",
     "CO2_emissions_t":1392,
     "Source_CO2_emissions":"Industrial point source",
     "Source":"",
     "City":"",
     "Province":"Río Negro"
     }
   },
   {
     "type": "Feature",
     "geometry": {
        "type": "Point",
        "coordinates":  [ -59.4506657,-37.54858826 ]
     },
     "properties": {
     "Name":"CT BARKER CIERRE CC",
     "Company":"",
     "Industry":"Thermal power plant",
     "CO2_emissions_t":636102,
     "Source_CO2_emissions":"Industrial point source",
     "Source":"Electrical energy",
     "City":"Benito Juárez",
     "Province":"Buenos Aires"
     }
   },
   {
     "type": "Feature",
     "geometry": {
        "type": "Point",
        "coordinates":  [ -57.95577403,-34.85965751 ]
     },
     "properties": {
     "Name":"CT BARRAGAN - ENARSA",
     "Company":"ENARSA",
     "Industry":"Thermal power plant",
     "CO2_emissions_t":319657,
     "Source_CO2_emissions":"Industrial point source",
     "Source":"Electrical energy",
     "City":"Ensenada",
     "Province":"Buenos Aires"
     }
   },
   {
     "type": "Feature",
     "geometry": {
        "type": "Point",
        "coordinates":  { }
     },
     "properties": {
     "Name":"CT BARRANQUERAS Chaco",
     "Company":"",
     "Industry":"Thermal power plant",
     "CO2_emissions_t":3373,
     "Source_CO2_emissions":"Industrial point source",
     "Source":"",
     "City":"",
     "Province":"Chaco"
     }
   },
   {
     "type": "Feature",
     "geometry": {
        "type": "Point",
        "coordinates":  [ -62.68583225,-32.61039562 ]
     },
     "properties": {
     "Name":"CT BELL VILLE - SULLAIR",
     "Company":"SULLAIR ARGENTINA S.A.",
     "Industry":"Thermal power plant",
     "CO2_emissions_t":6459,
     "Source_CO2_emissions":"Industrial point source",
     "Source":"Electrical energy",
     "City":"Bell Ville",
     "Province":"Córdoba"
     }
   },
   {
     "type": "Feature",
     "geometry": {
        "type": "Point",
        "coordinates":  { }
     },
     "properties": {
     "Name":"CT BRACHO CIERRE CC- Y-GEN S.A",
     "Company":"",
     "Industry":"Thermal power plant",
     "CO2_emissions_t":1242878,
     "Source_CO2_emissions":"Industrial point source",
     "Source":"",
     "City":"",
     "Province":"Tucumán"
     }
   },
   {
     "type": "Feature",
     "geometry": {
        "type": "Point",
        "coordinates":  { }
     },
     "properties": {
     "Name":"CT BRAGADO - EMGASUD",
     "Company":"",
     "Industry":"Thermal power plant",
     "CO2_emissions_t":7559,
     "Source_CO2_emissions":"Industrial point source",
     "Source":"",
     "City":"",
     "Province":"Buenos Aires"
     }
   },
   {
     "type": "Feature",
     "geometry": {
        "type": "Point",
        "coordinates":  [ -60.43241426,-35.13651396 ]
     },
     "properties": {
     "Name":"CT BRAGADO 2 - GENNEIA",
     "Company":"Genneia",
     "Industry":"Thermal power plant",
     "CO2_emissions_t":79138,
     "Source_CO2_emissions":"Industrial point source",
     "Source":"Electrical energy",
     "City":"Bragado",
     "Province":"Buenos Aires"
     }
   },
   {
     "type": "Feature",
     "geometry": {
        "type": "Point",
        "coordinates":  [ -60.43241426,-35.13651396 ]
     },
     "properties": {
     "Name":"CT BRAGADO 3 - GENNEIA",
     "Company":"Genneia",
     "Industry":"Thermal power plant",
     "CO2_emissions_t":92453,
     "Source_CO2_emissions":"Industrial point source",
     "Source":"Electrical energy",
     "City":"Bragado",
     "Province":"Buenos Aires"
     }
   },
   {
     "type": "Feature",
     "geometry": {
        "type": "Point",
        "coordinates":  [ -60.77930021,-31.71284154 ]
     },
     "properties": {
     "Name":"CT BRIGADIER LOPEZ",
     "Company":"Central Puerto S.A.",
     "Industry":"Thermal power plant",
     "CO2_emissions_t":64572,
     "Source_CO2_emissions":"Industrial point source",
     "Source":"Electrical energy",
     "City":"Santa Fe",
     "Province":"Santa Fe"
     }
   },
   {
     "type": "Feature",
     "geometry": {
        "type": "Point",
        "coordinates":  [ -64.61399317,-23.73226891 ]
     },
     "properties": {
     "Name":"CT CAIMANCITO -SULLAIR",
     "Company":"",
     "Industry":"Thermal power plant",
     "CO2_emissions_t":62571,
     "Source_CO2_emissions":"Industrial point source",
     "Source":"Electrical energy",
     "City":"Libertador Gral San Martín",
     "Province":"Jujuy"
     }
   },
   {
     "type": "Feature",
     "geometry": {
        "type": "Point",
        "coordinates":  [ -61.41843352,-32.78187222 ]
     },
     "properties": {
     "Name":"CT CAÑADA DE GOMEZ - SECCO",
     "Company":"Secco",
     "Industry":"Thermal power plant",
     "CO2_emissions_t":105744,
     "Source_CO2_emissions":"Industrial point source",
     "Source":"Electrical energy",
     "City":"Cañada de Gómez",
     "Province":"Santa Fe"
     }
   },
   {
     "type": "Feature",
     "geometry": {
        "type": "Point",
        "coordinates":  { }
     },
     "properties": {
     "Name":"CT CAPITAN SARMIENTO - SECCO",
     "Company":"Secco",
     "Industry":"Thermal power plant",
     "CO2_emissions_t":10205,
     "Source_CO2_emissions":"Industrial point source",
     "Source":"",
     "City":"",
     "Province":"Buenos Aires"
     }
   },
   {
     "type": "Feature",
     "geometry": {
        "type": "Point",
        "coordinates":  { }
     },
     "properties": {
     "Name":"CT CASTELLI - AGGREKO",
     "Company":"",
     "Industry":"Thermal power plant",
     "CO2_emissions_t":9440,
     "Source_CO2_emissions":"Industrial point source",
     "Source":"",
     "City":"",
     "Province":"Chaco"
     }
   },
   {
     "type": "Feature",
     "geometry": {
        "type": "Point",
        "coordinates":  { }
     },
     "properties": {
     "Name":"CT CATAMARCA - SECCO",
     "Company":"",
     "Industry":"Thermal power plant",
     "CO2_emissions_t":10013,
     "Source_CO2_emissions":"Industrial point source",
     "Source":"",
     "City":"",
     "Province":"Catamarca"
     }
   },
   {
     "type": "Feature",
     "geometry": {
        "type": "Point",
        "coordinates":  { }
     },
     "properties": {
     "Name":"CT CERES - SECCO",
     "Company":"",
     "Industry":"Thermal power plant",
     "CO2_emissions_t":3924,
     "Source_CO2_emissions":"Industrial point source",
     "Source":"",
     "City":"",
     "Province":"Santa Fe"
     }
   },
   {
     "type": "Feature",
     "geometry": {
        "type": "Point",
        "coordinates":  { }
     },
     "properties": {
     "Name":"CT CHARATA - SULLAIR",
     "Company":"",
     "Industry":"Thermal power plant",
     "CO2_emissions_t":7334,
     "Source_CO2_emissions":"Industrial point source",
     "Source":"",
     "City":"",
     "Province":"Chaco"
     }
   },
   {
     "type": "Feature",
     "geometry": {
        "type": "Point",
        "coordinates":  [ -67.50746666,-29.15733701 ]
     },
     "properties": {
     "Name":"CT CHILECITO - SECCO",
     "Company":"Secco",
     "Industry":"Thermal power plant",
     "CO2_emissions_t":4810,
     "Source_CO2_emissions":"Industrial point source",
     "Source":"Electrical energy",
     "City":"Chilecito",
     "Province":"La Rioja"
     }
   },
   {
     "type": "Feature",
     "geometry": {
        "type": "Point",
        "coordinates":  { }
     },
     "properties": {
     "Name":"CT CIPOLLETI - AGGREKO",
     "Company":"",
     "Industry":"Thermal power plant",
     "CO2_emissions_t":501,
     "Source_CO2_emissions":"Industrial point source",
     "Source":"",
     "City":"",
     "Province":"Río Negro"
     }
   },
   {
     "type": "Feature",
     "geometry": {
        "type": "Point",
        "coordinates":  [ -61.09709894,-33.73201213 ]
     },
     "properties": {
     "Name":"CT COLON BS.AS - SULLAIR",
     "Company":"",
     "Industry":"Thermal power plant",
     "CO2_emissions_t":5222,
     "Source_CO2_emissions":"Industrial point source",
     "Source":"Electrical energy",
     "City":"Colón",
     "Province":"Buenos Aires"
     }
   },
   {
     "type": "Feature",
     "geometry": {
        "type": "Point",
        "coordinates":  { }
     },
     "properties": {
     "Name":"CT CORRIENTES - AGGREKO",
     "Company":"",
     "Industry":"Thermal power plant",
     "CO2_emissions_t":7204,
     "Source_CO2_emissions":"Industrial point source",
     "Source":"",
     "City":"",
     "Province":"Corrientes"
     }
   },
   {
     "type": "Feature",
     "geometry": {
        "type": "Point",
        "coordinates":  [ -58.61692333,-34.90274362 ]
     },
     "properties": {
     "Name":"CT EZEIZA ETAPA1 G MEDITERRANE",
     "Company":"",
     "Industry":"Thermal power plant",
     "CO2_emissions_t":56618,
     "Source_CO2_emissions":"Industrial point source",
     "Source":"Electrical energy",
     "City":"Carlos Spegazzini",
     "Province":"Buenos Aires"
     }
   },
   {
     "type": "Feature",
     "geometry": {
        "type": "Point",
        "coordinates":  [ -58.61692333,-34.90274362 ]
     },
     "properties": {
     "Name":"CT EZEIZA ETAPA2 G MEDITERRANE",
     "Company":"",
     "Industry":"Thermal power plant",
     "CO2_emissions_t":32456,
     "Source_CO2_emissions":"Industrial point source",
     "Source":"Electrical energy",
     "City":"Carlos Spegazzini",
     "Province":"Buenos Aires"
     }
   },
   {
     "type": "Feature",
     "geometry": {
        "type": "Point",
        "coordinates":  { }
     },
     "properties": {
     "Name":"CT FORMOSA - APR ENERGY",
     "Company":"",
     "Industry":"Thermal power plant",
     "CO2_emissions_t":5006,
     "Source_CO2_emissions":"Industrial point source",
     "Source":"",
     "City":"",
     "Province":"Formosa"
     }
   },
   {
     "type": "Feature",
     "geometry": {
        "type": "Point",
        "coordinates":  [ -60.28090222,-33.45541478 ]
     },
     "properties": {
     "Name":"CT GENERAL ROJO CIERRE CC",
     "Company":"",
     "Industry":"Thermal power plant",
     "CO2_emissions_t":619957,
     "Source_CO2_emissions":"Industrial point source",
     "Source":"Electrical energy",
     "City":"San Nicolás de Los Arroyos",
     "Province":"Buenos Aires"
     }
   },
   {
     "type": "Feature",
     "geometry": {
        "type": "Point",
        "coordinates":  [ -59.27345715,-29.15821641 ]
     },
     "properties": {
     "Name":"CT GOYA - SECCO",
     "Company":"",
     "Industry":"Thermal power plant",
     "CO2_emissions_t":4754,
     "Source_CO2_emissions":"Industrial point source",
     "Source":"Electrical energy",
     "City":"Goya",
     "Province":"Corrientes"
     }
   },
   {
     "type": "Feature",
     "geometry": {
        "type": "Point",
        "coordinates":  { }
     },
     "properties": {
     "Name":"CT GRAL. VILLEGAS - AGGREKO",
     "Company":"",
     "Industry":"Thermal power plant",
     "CO2_emissions_t":14209,
     "Source_CO2_emissions":"Industrial point source",
     "Source":"",
     "City":"",
     "Province":"Buenos Aires"
     }
   },
   {
     "type": "Feature",
     "geometry": {
        "type": "Point",
        "coordinates":  [ -65.22182861,-26.866966 ]
     },
     "properties": {
     "Name":"CT INDEPEND. ETAPA1 G MEDITERR",
     "Company":"Grupo Albanesi",
     "Industry":"Thermal power plant",
     "CO2_emissions_t":10088,
     "Source_CO2_emissions":"Industrial point source",
     "Source":"Electrical energy",
     "City":"San Miguel de Tucumán",
     "Province":"Tucumán"
     }
   },
   {
     "type": "Feature",
     "geometry": {
        "type": "Point",
        "coordinates":  [ -65.22182861,-26.866966 ]
     },
     "properties": {
     "Name":"CT INDEPEND. ETAPA2 G MEDITERR",
     "Company":"Grupo Albanesi",
     "Industry":"Thermal power plant",
     "CO2_emissions_t":9463,
     "Source_CO2_emissions":"Industrial point source",
     "Source":"Electrical energy",
     "City":"San Miguel de Tucumán",
     "Province":"Tucumán"
     }
   },
   {
     "type": "Feature",
     "geometry": {
        "type": "Point",
        "coordinates":  [ -61.83150245,-23.90901687 ]
     },
     "properties": {
     "Name":"CT ING JUAREZ - SECCO",
     "Company":"",
     "Industry":"Thermal power plant",
     "CO2_emissions_t":2692,
     "Source_CO2_emissions":"Industrial point source",
     "Source":"Electrical energy",
     "City":"Ingeniero Juárez",
     "Province":"Formosa"
     }
   },
   {
     "type": "Feature",
     "geometry": {
        "type": "Point",
        "coordinates":  { }
     },
     "properties": {
     "Name":"CT INTA CATAMARCA - SECCO",
     "Company":"",
     "Industry":"Thermal power plant",
     "CO2_emissions_t":3559,
     "Source_CO2_emissions":"Industrial point source",
     "Source":"",
     "City":"",
     "Province":"Catamarca"
     }
   },
   {
     "type": "Feature",
     "geometry": {
        "type": "Point",
        "coordinates":  { }
     },
     "properties": {
     "Name":"CT ISLA VERDE - AGGREKO",
     "Company":"",
     "Industry":"Thermal power plant",
     "CO2_emissions_t":7670,
     "Source_CO2_emissions":"Industrial point source",
     "Source":"",
     "City":"",
     "Province":"Córdoba"
     }
   },
   {
     "type": "Feature",
     "geometry": {
        "type": "Point",
        "coordinates":  { }
     },
     "properties": {
     "Name":"CT ITATI - TURBODISEL",
     "Company":"",
     "Industry":"Thermal power plant",
     "CO2_emissions_t":1498,
     "Source_CO2_emissions":"Industrial point source",
     "Source":"",
     "City":"",
     "Province":"Corrientes"
     }
   },
   {
     "type": "Feature",
     "geometry": {
        "type": "Point",
        "coordinates":  { }
     },
     "properties": {
     "Name":"CT JUNIN",
     "Company":"",
     "Industry":"Thermal power plant",
     "CO2_emissions_t":14479,
     "Source_CO2_emissions":"Industrial point source",
     "Source":"",
     "City":"",
     "Province":"Buenos Aires"
     }
   },
   {
     "type": "Feature",
     "geometry": {
        "type": "Point",
        "coordinates":  { }
     },
     "properties": {
     "Name":"CT LA PAZ Entre Rios - ENARSA",
     "Company":"",
     "Industry":"Thermal power plant",
     "CO2_emissions_t":2674,
     "Source_CO2_emissions":"Industrial point source",
     "Source":"",
     "City":"",
     "Province":"Entre Ríos"
     }
   },
   {
     "type": "Feature",
     "geometry": {
        "type": "Point",
        "coordinates":  [ -58.01640058,-34.9338664 ]
     },
     "properties": {
     "Name":"CT LA PLATA - SULLAIR",
     "Company":"",
     "Industry":"Thermal power plant",
     "CO2_emissions_t":14048,
     "Source_CO2_emissions":"Industrial point source",
     "Source":"Electrical energy",
     "City":"San Carlos",
     "Province":"Buenos Aires"
     }
   },
   {
     "type": "Feature",
     "geometry": {
        "type": "Point",
        "coordinates":  { }
     },
     "properties": {
     "Name":"CT LA RIOJA - SECCO",
     "Company":"",
     "Industry":"Thermal power plant",
     "CO2_emissions_t":7688,
     "Source_CO2_emissions":"Industrial point source",
     "Source":"",
     "City":"",
     "Province":"La Rioja"
     }
   },
   {
     "type": "Feature",
     "geometry": {
        "type": "Point",
        "coordinates":  { }
     },
     "properties": {
     "Name":"CT LA RIOJA SUR- SECCO",
     "Company":"",
     "Industry":"Thermal power plant",
     "CO2_emissions_t":3506,
     "Source_CO2_emissions":"Industrial point source",
     "Source":"",
     "City":"",
     "Province":"La Rioja"
     }
   },
   {
     "type": "Feature",
     "geometry": {
        "type": "Point",
        "coordinates":  [ -58.25915073,-25.12695055 ]
     },
     "properties": {
     "Name":"CT LAGUNA BLANCA - SECCO",
     "Company":"",
     "Industry":"Thermal power plant",
     "CO2_emissions_t":4457,
     "Source_CO2_emissions":"Industrial point source",
     "Source":"Electrical energy",
     "City":"Laguna Blanca",
     "Province":"Formosa"
     }
   },
   {
     "type": "Feature",
     "geometry": {
        "type": "Point",
        "coordinates":  { }
     },
     "properties": {
     "Name":"CT LAS ARMAS II - EMGASUD",
     "Company":"",
     "Industry":"Thermal power plant",
     "CO2_emissions_t":606,
     "Source_CO2_emissions":"Industrial point source",
     "Source":"",
     "City":"",
     "Province":"#NV"
     }
   },
   {
     "type": "Feature",
     "geometry": {
        "type": "Point",
        "coordinates":  { }
     },
     "properties": {
     "Name":"CT LAS PALMAS 2 - ARAUCARIA",
     "Company":"",
     "Industry":"Thermal power plant",
     "CO2_emissions_t":100667,
     "Source_CO2_emissions":"Industrial point source",
     "Source":"",
     "City":"",
     "Province":"Buenos Aires"
     }
   },
   {
     "type": "Feature",
     "geometry": {
        "type": "Point",
        "coordinates":  { }
     },
     "properties": {
     "Name":"CT LAS PALMAS -TURBODISEL",
     "Company":"",
     "Industry":"Thermal power plant",
     "CO2_emissions_t":543,
     "Source_CO2_emissions":"Industrial point source",
     "Source":"",
     "City":"",
     "Province":"Chaco"
     }
   },
   {
     "type": "Feature",
     "geometry": {
        "type": "Point",
        "coordinates":  { }
     },
     "properties": {
     "Name":"CT LIBERTADOR GSM - SULLAIR",
     "Company":"",
     "Industry":"Thermal power plant",
     "CO2_emissions_t":3331,
     "Source_CO2_emissions":"Industrial point source",
     "Source":"",
     "City":"",
     "Province":"Jujuy"
     }
   },
   {
     "type": "Feature",
     "geometry": {
        "type": "Point",
        "coordinates":  [ -61.52070383,-34.85716731 ]
     },
     "properties": {
     "Name":"CT LINCOLN",
     "Company":"",
     "Industry":"Thermal power plant",
     "CO2_emissions_t":5898,
     "Source_CO2_emissions":"Industrial point source",
     "Source":"Electrical energy",
     "City":"Lincoln",
     "Province":"Buenos Aires"
     }
   },
   {
     "type": "Feature",
     "geometry": {
        "type": "Point",
        "coordinates":  { }
     },
     "properties": {
     "Name":"CT LOBOS BS.AS - SULLAIR",
     "Company":"",
     "Industry":"Thermal power plant",
     "CO2_emissions_t":23328,
     "Source_CO2_emissions":"Industrial point source",
     "Source":"",
     "City":"",
     "Province":"Buenos Aires"
     }
   },
   {
     "type": "Feature",
     "geometry": {
        "type": "Point",
        "coordinates":  { }
     },
     "properties": {
     "Name":"CT LOMA CAMPANA 1 -YPF",
     "Company":"",
     "Industry":"Thermal power plant",
     "CO2_emissions_t":93992,
     "Source_CO2_emissions":"Industrial point source",
     "Source":"",
     "City":"",
     "Province":"Neuquén"
     }
   },
   {
     "type": "Feature",
     "geometry": {
        "type": "Point",
        "coordinates":  { }
     },
     "properties": {
     "Name":"CT LOMA CAMPANA 2 -Y-GEN ELECT",
     "Company":"",
     "Industry":"Thermal power plant",
     "CO2_emissions_t":164946,
     "Source_CO2_emissions":"Industrial point source",
     "Source":"",
     "City":"",
     "Province":"Neuquén"
     }
   },
   {
     "type": "Feature",
     "geometry": {
        "type": "Point",
        "coordinates":  { }
     },
     "properties": {
     "Name":"CT LOMA DE LA LATA II(NEUQEUN)",
     "Company":"",
     "Industry":"Thermal power plant",
     "CO2_emissions_t":228867,
     "Source_CO2_emissions":"Industrial point source",
     "Source":"",
     "City":"",
     "Province":"Neuquén"
     }
   },
   {
     "type": "Feature",
     "geometry": {
        "type": "Point",
        "coordinates":  { }
     },
     "properties": {
     "Name":"CT LUJAN II - ARAUCARIA ENERGY",
     "Company":"",
     "Industry":"Thermal power plant",
     "CO2_emissions_t":68363,
     "Source_CO2_emissions":"Industrial point source",
     "Source":"",
     "City":"",
     "Province":"Buenos Aires"
     }
   },
   {
     "type": "Feature",
     "geometry": {
        "type": "Point",
        "coordinates":  { }
     },
     "properties": {
     "Name":"CT MAGDALENA - APR ENERGY",
     "Company":"",
     "Industry":"Thermal power plant",
     "CO2_emissions_t":4433,
     "Source_CO2_emissions":"Industrial point source",
     "Source":"",
     "City":"",
     "Province":"Buenos Aires"
     }
   },
   {
     "type": "Feature",
     "geometry": {
        "type": "Point",
        "coordinates":  { }
     },
     "properties": {
     "Name":"CT MATHEU II - APR ENERGY",
     "Company":"",
     "Industry":"Thermal power plant",
     "CO2_emissions_t":1875,
     "Source_CO2_emissions":"Industrial point source",
     "Source":"",
     "City":"",
     "Province":"Buenos Aires"
     }
   },
   {
     "type": "Feature",
     "geometry": {
        "type": "Point",
        "coordinates":  { }
     },
     "properties": {
     "Name":"CT MIRAMAR I - ENERGYST",
     "Company":"",
     "Industry":"Thermal power plant",
     "CO2_emissions_t":23587,
     "Source_CO2_emissions":"Industrial point source",
     "Source":"",
     "City":"",
     "Province":"Buenos Aires"
     }
   },
   {
     "type": "Feature",
     "geometry": {
        "type": "Point",
        "coordinates":  { }
     },
     "properties": {
     "Name":"CT ORAN - SECCO",
     "Company":"",
     "Industry":"Thermal power plant",
     "CO2_emissions_t":3717,
     "Source_CO2_emissions":"Industrial point source",
     "Source":"",
     "City":"",
     "Province":"Salta"
     }
   },
   {
     "type": "Feature",
     "geometry": {
        "type": "Point",
        "coordinates":  { }
     },
     "properties": {
     "Name":"CT PARQUE INDUSTR.CATAM-SECCO",
     "Company":"",
     "Industry":"Thermal power plant",
     "CO2_emissions_t":8843,
     "Source_CO2_emissions":"Industrial point source",
     "Source":"",
     "City":"",
     "Province":"Catamarca"
     }
   },
   {
     "type": "Feature",
     "geometry": {
        "type": "Point",
        "coordinates":  { }
     },
     "properties": {
     "Name":"CT PASO LA PATRIA-TURBODISEL",
     "Company":"",
     "Industry":"Thermal power plant",
     "CO2_emissions_t":1189,
     "Source_CO2_emissions":"Industrial point source",
     "Source":"",
     "City":"",
     "Province":"Corrientes"
     }
   },
   {
     "type": "Feature",
     "geometry": {
        "type": "Point",
        "coordinates":  { }
     },
     "properties": {
     "Name":"CT PEREZ - SECCO",
     "Company":"",
     "Industry":"Thermal power plant",
     "CO2_emissions_t":109776,
     "Source_CO2_emissions":"Industrial point source",
     "Source":"",
     "City":"",
     "Province":"Santa Fe"
     }
   },
   {
     "type": "Feature",
     "geometry": {
        "type": "Point",
        "coordinates":  { }
     },
     "properties": {
     "Name":"CT PIEDRABUENA MG(L.LATA)",
     "Company":"",
     "Industry":"Thermal power plant",
     "CO2_emissions_t":173945,
     "Source_CO2_emissions":"Industrial point source",
     "Source":"",
     "City":"",
     "Province":"Buenos Aires"
     }
   },
   {
     "type": "Feature",
     "geometry": {
        "type": "Point",
        "coordinates":  { }
     },
     "properties": {
     "Name":"CT PILAR - EPEC",
     "Company":"",
     "Industry":"Thermal power plant",
     "CO2_emissions_t":1055603,
     "Source_CO2_emissions":"Industrial point source",
     "Source":"",
     "City":"",
     "Province":"Córdoba"
     }
   },
   {
     "type": "Feature",
     "geometry": {
        "type": "Point",
        "coordinates":  { }
     },
     "properties": {
     "Name":"CT PILAR BS AS- PAMPA ENERGÍA",
     "Company":"",
     "Industry":"Thermal power plant",
     "CO2_emissions_t":187528,
     "Source_CO2_emissions":"Industrial point source",
     "Source":"",
     "City":"",
     "Province":"Buenos Aires"
     }
   },
   {
     "type": "Feature",
     "geometry": {
        "type": "Point",
        "coordinates":  { }
     },
     "properties": {
     "Name":"CT PIRANE - SULLAIR",
     "Company":"",
     "Industry":"Thermal power plant",
     "CO2_emissions_t":10675,
     "Source_CO2_emissions":"Industrial point source",
     "Source":"",
     "City":"",
     "Province":"Formosa"
     }
   },
   {
     "type": "Feature",
     "geometry": {
        "type": "Point",
        "coordinates":  { }
     },
     "properties": {
     "Name":"CT PRESIDENCIA ROCA",
     "Company":"",
     "Industry":"Thermal power plant",
     "CO2_emissions_t":1276,
     "Source_CO2_emissions":"Industrial point source",
     "Source":"",
     "City":"",
     "Province":"Chaco"
     }
   },
   {
     "type": "Feature",
     "geometry": {
        "type": "Point",
        "coordinates":  { }
     },
     "properties": {
     "Name":"CT RAFAELA - SECCO",
     "Company":"",
     "Industry":"Thermal power plant",
     "CO2_emissions_t":7300,
     "Source_CO2_emissions":"Industrial point source",
     "Source":"",
     "City":"",
     "Province":"Santa Fe"
     }
   },
   {
     "type": "Feature",
     "geometry": {
        "type": "Point",
        "coordinates":  { }
     },
     "properties": {
     "Name":"CT REALICO - SECCO",
     "Company":"",
     "Industry":"Thermal power plant",
     "CO2_emissions_t":6721,
     "Source_CO2_emissions":"Industrial point source",
     "Source":"",
     "City":"",
     "Province":"La Pampa"
     }
   },
   {
     "type": "Feature",
     "geometry": {
        "type": "Point",
        "coordinates":  { }
     },
     "properties": {
     "Name":"CT RENOVA - ALBANESI ENERGIA",
     "Company":"",
     "Industry":"Thermal power plant",
     "CO2_emissions_t":457321,
     "Source_CO2_emissions":"Industrial point source",
     "Source":"",
     "City":"",
     "Province":"Santa Fe"
     }
   },
   {
     "type": "Feature",
     "geometry": {
        "type": "Point",
        "coordinates":  { }
     },
     "properties": {
     "Name":"CT RIO TERCERO II - SoENERGY",
     "Company":"",
     "Industry":"Thermal power plant",
     "CO2_emissions_t":30138,
     "Source_CO2_emissions":"Industrial point source",
     "Source":"",
     "City":"",
     "Province":"Córdoba"
     }
   },
   {
     "type": "Feature",
     "geometry": {
        "type": "Point",
        "coordinates":  { }
     },
     "properties": {
     "Name":"CT ROCA SA",
     "Company":"",
     "Industry":"Thermal power plant",
     "CO2_emissions_t":502028,
     "Source_CO2_emissions":"Industrial point source",
     "Source":"",
     "City":"",
     "Province":"Río Negro"
     }
   },
   {
     "type": "Feature",
     "geometry": {
        "type": "Point",
        "coordinates":  { }
     },
     "properties": {
     "Name":"CT RUFINO Sta Fe - ENARSA",
     "Company":"",
     "Industry":"Thermal power plant",
     "CO2_emissions_t":8965,
     "Source_CO2_emissions":"Industrial point source",
     "Source":"",
     "City":"",
     "Province":"Santa Fe"
     }
   },
   {
     "type": "Feature",
     "geometry": {
        "type": "Point",
        "coordinates":  { }
     },
     "properties": {
     "Name":"CT SAENZ PEÑA - APR ENERGY",
     "Company":"",
     "Industry":"Thermal power plant",
     "CO2_emissions_t":3654,
     "Source_CO2_emissions":"Industrial point source",
     "Source":"",
     "City":"",
     "Province":"Chaco"
     }
   },
   {
     "type": "Feature",
     "geometry": {
        "type": "Point",
        "coordinates":  { }
     },
     "properties": {
     "Name":"CT SAENZ PEÑA II- AGGREKO",
     "Company":"",
     "Industry":"Thermal power plant",
     "CO2_emissions_t":4626,
     "Source_CO2_emissions":"Industrial point source",
     "Source":"",
     "City":"",
     "Province":"Chaco"
     }
   },
   {
     "type": "Feature",
     "geometry": {
        "type": "Point",
        "coordinates":  { }
     },
     "properties": {
     "Name":"CT SALTO 2 - SoENERGY",
     "Company":"",
     "Industry":"Thermal power plant",
     "CO2_emissions_t":103648,
     "Source_CO2_emissions":"Industrial point source",
     "Source":"",
     "City":"",
     "Province":"Buenos Aires"
     }
   },
   {
     "type": "Feature",
     "geometry": {
        "type": "Point",
        "coordinates":  { }
     },
     "properties": {
     "Name":"CT SAN MARTIN Chaco",
     "Company":"",
     "Industry":"Thermal power plant",
     "CO2_emissions_t":1320,
     "Source_CO2_emissions":"Industrial point source",
     "Source":"",
     "City":"",
     "Province":"Chaco"
     }
   },
   {
     "type": "Feature",
     "geometry": {
        "type": "Point",
        "coordinates":  { }
     },
     "properties": {
     "Name":"CT SAN PEDRO - CIERRE CC",
     "Company":"",
     "Industry":"Thermal power plant",
     "CO2_emissions_t":33804,
     "Source_CO2_emissions":"Industrial point source",
     "Source":"",
     "City":"",
     "Province":"Buenos Aires"
     }
   },
   {
     "type": "Feature",
     "geometry": {
        "type": "Point",
        "coordinates":  { }
     },
     "properties": {
     "Name":"CT SAN PEDRO - SPI ENERGY SA",
     "Company":"",
     "Industry":"Thermal power plant",
     "CO2_emissions_t":46087,
     "Source_CO2_emissions":"Industrial point source",
     "Source":"",
     "City":"",
     "Province":"Buenos Aires"
     }
   },
   {
     "type": "Feature",
     "geometry": {
        "type": "Point",
        "coordinates":  { }
     },
     "properties": {
     "Name":"CT SAN SALVADOR E.Rios -ENARSA",
     "Company":"",
     "Industry":"Thermal power plant",
     "CO2_emissions_t":1815,
     "Source_CO2_emissions":"Industrial point source",
     "Source":"",
     "City":"",
     "Province":"Entre Ríos"
     }
   },
   {
     "type": "Feature",
     "geometry": {
        "type": "Point",
        "coordinates":  { }
     },
     "properties": {
     "Name":"CT SAN VICENTE BsAs - ENARSA",
     "Company":"",
     "Industry":"Thermal power plant",
     "CO2_emissions_t":4595,
     "Source_CO2_emissions":"Industrial point source",
     "Source":"",
     "City":"",
     "Province":"Buenos Aires"
     }
   },
   {
     "type": "Feature",
     "geometry": {
        "type": "Point",
        "coordinates":  { }
     },
     "properties": {
     "Name":"CT SANTA ROSA -TURBODISEL",
     "Company":"",
     "Industry":"Thermal power plant",
     "CO2_emissions_t":1988,
     "Source_CO2_emissions":"Industrial point source",
     "Source":"",
     "City":"",
     "Province":"Corrientes"
     }
   },
   {
     "type": "Feature",
     "geometry": {
        "type": "Point",
        "coordinates":  { }
     },
     "properties": {
     "Name":"CT TEREVINTOS - SECCO",
     "Company":"",
     "Industry":"Thermal power plant",
     "CO2_emissions_t":2652,
     "Source_CO2_emissions":"Industrial point source",
     "Source":"",
     "City":"",
     "Province":"Catamarca"
     }
   },
   {
     "type": "Feature",
     "geometry": {
        "type": "Point",
        "coordinates":  { }
     },
     "properties": {
     "Name":"CT TINOGASTA - SULLAIR",
     "Company":"",
     "Industry":"Thermal power plant",
     "CO2_emissions_t":4169,
     "Source_CO2_emissions":"Industrial point source",
     "Source":"",
     "City":"",
     "Province":"Catamarca"
     }
   },
   {
     "type": "Feature",
     "geometry": {
        "type": "Point",
        "coordinates":  { }
     },
     "properties": {
     "Name":"CT VENADO TUERTO - SECCO",
     "Company":"",
     "Industry":"Thermal power plant",
     "CO2_emissions_t":7617,
     "Source_CO2_emissions":"Industrial point source",
     "Source":"",
     "City":"",
     "Province":"Santa Fe"
     }
   },
   {
     "type": "Feature",
     "geometry": {
        "type": "Point",
        "coordinates":  { }
     },
     "properties": {
     "Name":"CT VIALE - AGGREKO",
     "Company":"",
     "Industry":"Thermal power plant",
     "CO2_emissions_t":4529,
     "Source_CO2_emissions":"Industrial point source",
     "Source":"",
     "City":"",
     "Province":"Entre Ríos"
     }
   },
   {
     "type": "Feature",
     "geometry": {
        "type": "Point",
        "coordinates":  { }
     },
     "properties": {
     "Name":"CT VILLA ANGELA - AGGREKO",
     "Company":"",
     "Industry":"Thermal power plant",
     "CO2_emissions_t":4977,
     "Source_CO2_emissions":"Industrial point source",
     "Source":"",
     "City":"",
     "Province":"Chaco"
     }
   },
   {
     "type": "Feature",
     "geometry": {
        "type": "Point",
        "coordinates":  { }
     },
     "properties": {
     "Name":"CT VILLA GESELL-CATLANT.",
     "Company":"",
     "Industry":"Thermal power plant",
     "CO2_emissions_t":333196,
     "Source_CO2_emissions":"Industrial point source",
     "Source":"",
     "City":"",
     "Province":"Buenos Aires"
     }
   },
   {
     "type": "Feature",
     "geometry": {
        "type": "Point",
        "coordinates":  { }
     },
     "properties": {
     "Name":"CT VILLA MARIA CIERRE CC-UENSA",
     "Company":"",
     "Industry":"Thermal power plant",
     "CO2_emissions_t":630749,
     "Source_CO2_emissions":"Industrial point source",
     "Source":"",
     "City":"",
     "Province":"Córdoba"
     }
   },
   {
     "type": "Feature",
     "geometry": {
        "type": "Point",
        "coordinates":  { }
     },
     "properties": {
     "Name":"CT VILLA OCAMPO - SECCO",
     "Company":"",
     "Industry":"Thermal power plant",
     "CO2_emissions_t":32945,
     "Source_CO2_emissions":"Industrial point source",
     "Source":"",
     "City":"",
     "Province":"Santa Fe"
     }
   },
   {
     "type": "Feature",
     "geometry": {
        "type": "Point",
        "coordinates":  { }
     },
     "properties": {
     "Name":"CT VUELTA DE OBLIGADO",
     "Company":"",
     "Industry":"Thermal power plant",
     "CO2_emissions_t":1829953,
     "Source_CO2_emissions":"Industrial point source",
     "Source":"",
     "City":"",
     "Province":"Santa Fe"
     }
   },
   {
     "type": "Feature",
     "geometry": {
        "type": "Point",
        "coordinates":  { }
     },
     "properties": {
     "Name":"CT ZAPPALORTO - APR ENERGY",
     "Company":"",
     "Industry":"Thermal power plant",
     "CO2_emissions_t":15249,
     "Source_CO2_emissions":"Industrial point source",
     "Source":"",
     "City":"",
     "Province":"Buenos Aires"
     }
   },
   {
     "type": "Feature",
     "geometry": {
        "type": "Point",
        "coordinates":  { }
     },
     "properties": {
     "Name":"EDECAT GENERACION",
     "Company":"",
     "Industry":"Thermal power plant",
     "CO2_emissions_t":397,
     "Source_CO2_emissions":"Industrial point source",
     "Source":"",
     "City":"",
     "Province":"Catamarca"
     }
   },
   {
     "type": "Feature",
     "geometry": {
        "type": "Point",
        "coordinates":  { }
     },
     "properties": {
     "Name":"EDELAR GENERACION",
     "Company":"",
     "Industry":"Thermal power plant",
     "CO2_emissions_t":18733,
     "Source_CO2_emissions":"Industrial point source",
     "Source":"",
     "City":"",
     "Province":"La Rioja"
     }
   },
   {
     "type": "Feature",
     "geometry": {
        "type": "Point",
        "coordinates":  { }
     },
     "properties": {
     "Name":"EDEN GENERACION",
     "Company":"",
     "Industry":"Thermal power plant",
     "CO2_emissions_t":1627,
     "Source_CO2_emissions":"Industrial point source",
     "Source":"",
     "City":"",
     "Province":"Buenos Aires"
     }
   },
   {
     "type": "Feature",
     "geometry": {
        "type": "Point",
        "coordinates":  { }
     },
     "properties": {
     "Name":"ELECTROPATAGONIA-C.RIV-C.COMB.",
     "Company":"",
     "Industry":"Thermal power plant",
     "CO2_emissions_t":15137,
     "Source_CO2_emissions":"Industrial point source",
     "Source":"",
     "City":"",
     "Province":"Chubut"
     }
   },
   {
     "type": "Feature",
     "geometry": {
        "type": "Point",
        "coordinates":  { }
     },
     "properties": {
     "Name":"EMP.DIS.S.ESTERO GENERACION",
     "Company":"",
     "Industry":"Thermal power plant",
     "CO2_emissions_t":4901,
     "Source_CO2_emissions":"Industrial point source",
     "Source":"",
     "City":"",
     "Province":"Santiago del Estero"
     }
   },
   {
     "type": "Feature",
     "geometry": {
        "type": "Point",
        "coordinates":  { }
     },
     "properties": {
     "Name":"EMSA GENERACION",
     "Company":"",
     "Industry":"Thermal power plant",
     "CO2_emissions_t":10472,
     "Source_CO2_emissions":"Industrial point source",
     "Source":"",
     "City":"",
     "Province":"Misiones"
     }
   },
   {
     "type": "Feature",
     "geometry": {
        "type": "Point",
        "coordinates":  { }
     },
     "properties": {
     "Name":"ENDESA COSTANERA SA",
     "Company":"",
     "Industry":"Thermal power plant",
     "CO2_emissions_t":2518331,
     "Source_CO2_emissions":"Industrial point source",
     "Source":"",
     "City":"",
     "Province":"Buenos Aires"
     }
   },
   {
     "type": "Feature",
     "geometry": {
        "type": "Point",
        "coordinates":  { }
     },
     "properties": {
     "Name":"ENERGIA DEL SUR S.A.",
     "Company":"",
     "Industry":"Thermal power plant",
     "CO2_emissions_t":226761,
     "Source_CO2_emissions":"Industrial point source",
     "Source":"",
     "City":"",
     "Province":"Chubut"
     }
   },
   {
     "type": "Feature",
     "geometry": {
        "type": "Point",
        "coordinates":  { }
     },
     "properties": {
     "Name":"EPEC GENERACION",
     "Company":"",
     "Industry":"Thermal power plant",
     "CO2_emissions_t":15814,
     "Source_CO2_emissions":"Industrial point source",
     "Source":"",
     "City":"",
     "Province":"Córdoba"
     }
   },
   {
     "type": "Feature",
     "geometry": {
        "type": "Point",
        "coordinates":  { }
     },
     "properties": {
     "Name":"GEN.MEDITERRANEA (CONT.PLUS)",
     "Company":"",
     "Industry":"Thermal power plant",
     "CO2_emissions_t":36744,
     "Source_CO2_emissions":"Industrial point source",
     "Source":"",
     "City":"",
     "Province":"Córdoba"
     }
   },
   {
     "type": "Feature",
     "geometry": {
        "type": "Point",
        "coordinates":  { }
     },
     "properties": {
     "Name":"GEN.MEDITERRANEA GRUPO 5",
     "Company":"",
     "Industry":"Thermal power plant",
     "CO2_emissions_t":27675,
     "Source_CO2_emissions":"Industrial point source",
     "Source":"",
     "City":"",
     "Province":"Córdoba"
     }
   },
   {
     "type": "Feature",
     "geometry": {
        "type": "Point",
        "coordinates":  { }
     },
     "properties": {
     "Name":"GENELBA - PETROBRAS",
     "Company":"",
     "Industry":"Thermal power plant",
     "CO2_emissions_t":1898589,
     "Source_CO2_emissions":"Industrial point source",
     "Source":"",
     "City":"",
     "Province":"Buenos Aires"
     }
   },
   {
     "type": "Feature",
     "geometry": {
        "type": "Point",
        "coordinates":  { }
     },
     "properties": {
     "Name":"GENELBA - RES.287",
     "Company":"",
     "Industry":"Thermal power plant",
     "CO2_emissions_t":1396334,
     "Source_CO2_emissions":"Industrial point source",
     "Source":"",
     "City":"",
     "Province":"Buenos Aires"
     }
   },
   {
     "type": "Feature",
     "geometry": {
        "type": "Point",
        "coordinates":  { }
     },
     "properties": {
     "Name":"GENERACION FRIAS S.A.",
     "Company":"",
     "Industry":"Thermal power plant",
     "CO2_emissions_t":15755,
     "Source_CO2_emissions":"Industrial point source",
     "Source":"",
     "City":"",
     "Province":"Santiago del Estero"
     }
   },
   {
     "type": "Feature",
     "geometry": {
        "type": "Point",
        "coordinates":  { }
     },
     "properties": {
     "Name":"GENERACION INDEPENDENCIA S.A.",
     "Company":"",
     "Industry":"Thermal power plant",
     "CO2_emissions_t":28961,
     "Source_CO2_emissions":"Industrial point source",
     "Source":"",
     "City":"",
     "Province":"Tucumán"
     }
   },
   {
     "type": "Feature",
     "geometry": {
        "type": "Point",
        "coordinates":  { }
     },
     "properties": {
     "Name":"GENERACION LA BANDA S.A.",
     "Company":"",
     "Industry":"Thermal power plant",
     "CO2_emissions_t":2514,
     "Source_CO2_emissions":"Industrial point source",
     "Source":"",
     "City":"",
     "Province":"Santiago del Estero"
     }
   },
   {
     "type": "Feature",
     "geometry": {
        "type": "Point",
        "coordinates":  { }
     },
     "properties": {
     "Name":"GENERACION MEDITERRANEA",
     "Company":"",
     "Industry":"Thermal power plant",
     "CO2_emissions_t":6470,
     "Source_CO2_emissions":"Industrial point source",
     "Source":"",
     "City":"",
     "Province":"Córdoba"
     }
   },
   {
     "type": "Feature",
     "geometry": {
        "type": "Point",
        "coordinates":  { }
     },
     "properties": {
     "Name":"GENERACION MEDITERRANEA 220",
     "Company":"",
     "Industry":"Thermal power plant",
     "CO2_emissions_t":31381,
     "Source_CO2_emissions":"Industrial point source",
     "Source":"",
     "City":"",
     "Province":"Córdoba"
     }
   },
   {
     "type": "Feature",
     "geometry": {
        "type": "Point",
        "coordinates":  { }
     },
     "properties": {
     "Name":"GENERACION RIOJANA SA",
     "Company":"",
     "Industry":"Thermal power plant",
     "CO2_emissions_t":13132,
     "Source_CO2_emissions":"Industrial point source",
     "Source":"",
     "City":"",
     "Province":"La Rioja"
     }
   },
   {
     "type": "Feature",
     "geometry": {
        "type": "Point",
        "coordinates":  { }
     },
     "properties": {
     "Name":"GENERADORA CORDOBA S.A.",
     "Company":"",
     "Industry":"Thermal power plant",
     "CO2_emissions_t":1537,
     "Source_CO2_emissions":"Industrial point source",
     "Source":"",
     "City":"",
     "Province":"Córdoba"
     }
   },
   {
     "type": "Feature",
     "geometry": {
        "type": "Point",
        "coordinates":  { }
     },
     "properties": {
     "Name":"GENERADORA ELEC.TUCUMAN SA",
     "Company":"",
     "Industry":"Thermal power plant",
     "CO2_emissions_t":9198,
     "Source_CO2_emissions":"Industrial point source",
     "Source":"",
     "City":"",
     "Province":"Tucumán"
     }
   },
   {
     "type": "Feature",
     "geometry": {
        "type": "Point",
        "coordinates":  { }
     },
     "properties": {
     "Name":"HIDROTERMICA SAN JUAN",
     "Company":"",
     "Industry":"Thermal power plant",
     "CO2_emissions_t":6068,
     "Source_CO2_emissions":"Industrial point source",
     "Source":"",
     "City":"",
     "Province":"San Juan"
     }
   },
   {
     "type": "Feature",
     "geometry": {
        "type": "Point",
        "coordinates":  { }
     },
     "properties": {
     "Name":"LA PLATA COGENERACION SA",
     "Company":"",
     "Industry":"Thermal power plant",
     "CO2_emissions_t":339665,
     "Source_CO2_emissions":"Industrial point source",
     "Source":"",
     "City":"",
     "Province":"Buenos Aires"
     }
   },
   {
     "type": "Feature",
     "geometry": {
        "type": "Point",
        "coordinates":  { }
     },
     "properties": {
     "Name":"LEDESMA SAAI",
     "Company":"",
     "Industry":"Thermal power plant",
     "CO2_emissions_t":7544,
     "Source_CO2_emissions":"Industrial point source",
     "Source":"",
     "City":"",
     "Province":"Jujuy"
     }
   },
   {
     "type": "Feature",
     "geometry": {
        "type": "Point",
        "coordinates":  { }
     },
     "properties": {
     "Name":"LUJAN DE CUYO COGENERAC.PUERTO",
     "Company":"",
     "Industry":"Thermal power plant",
     "CO2_emissions_t":265976,
     "Source_CO2_emissions":"Industrial point source",
     "Source":"",
     "City":"",
     "Province":"Mendoza"
     }
   },
   {
     "type": "Feature",
     "geometry": {
        "type": "Point",
        "coordinates":  { }
     },
     "properties": {
     "Name":"MOLINOS AGRO AG.(Ex.Mol Rio P)",
     "Company":"",
     "Industry":"Thermal power plant",
     "CO2_emissions_t":222,
     "Source_CO2_emissions":"Industrial point source",
     "Source":"",
     "City":"",
     "Province":"Santa Fe"
     }
   },
   {
     "type": "Feature",
     "geometry": {
        "type": "Point",
        "coordinates":  { }
     },
     "properties": {
     "Name":"MOTOGENERADORES COSTANERA",
     "Company":"",
     "Industry":"Thermal power plant",
     "CO2_emissions_t":47985,
     "Source_CO2_emissions":"Industrial point source",
     "Source":"",
     "City":"",
     "Province":"Buenos Aires"
     }
   },
   {
     "type": "Feature",
     "geometry": {
        "type": "Point",
        "coordinates":  { }
     },
     "properties": {
     "Name":"NIDERA SAFORCADA-Junin",
     "Company":"",
     "Industry":"Thermal power plant",
     "CO2_emissions_t":20,
     "Source_CO2_emissions":"Industrial point source",
     "Source":"",
     "City":"",
     "Province":"Buenos Aires"
     }
   },
   {
     "type": "Feature",
     "geometry": {
        "type": "Point",
        "coordinates":  { }
     },
     "properties": {
     "Name":"PAMPA ENERGIA SA",
     "Company":"",
     "Industry":"Thermal power plant",
     "CO2_emissions_t":78724,
     "Source_CO2_emissions":"Industrial point source",
     "Source":"",
     "City":"",
     "Province":"Salta"
     }
   },
   {
     "type": "Feature",
     "geometry": {
        "type": "Point",
        "coordinates":  { }
     },
     "properties": {
     "Name":"REFINERIA LA PLATA AUTOG",
     "Company":"",
     "Industry":"Thermal power plant",
     "CO2_emissions_t":10998,
     "Source_CO2_emissions":"Industrial point source",
     "Source":"",
     "City":"",
     "Province":"Buenos Aires"
     }
   },
   {
     "type": "Feature",
     "geometry": {
        "type": "Point",
        "coordinates":  { }
     },
     "properties": {
     "Name":"SHELL CAPSA PTA. DOCK SUD",
     "Company":"",
     "Industry":"Thermal power plant",
     "CO2_emissions_t":25501,
     "Source_CO2_emissions":"Industrial point source",
     "Source":"",
     "City":"",
     "Province":"Buenos Aires"
     }
   },
   {
     "type": "Feature",
     "geometry": {
        "type": "Point",
        "coordinates":  { }
     },
     "properties": {
     "Name":"SIDERAR PTA. IND. SAN NICOLAS",
     "Company":"",
     "Industry":"Thermal power plant",
     "CO2_emissions_t":31,
     "Source_CO2_emissions":"Industrial point source",
     "Source":"",
     "City":"",
     "Province":"Buenos Aires"
     }
   },
   {
     "type": "Feature",
     "geometry": {
        "type": "Point",
        "coordinates":  { }
     },
     "properties": {
     "Name":"SINOPEC Arg. - El Huemul",
     "Company":"",
     "Industry":"Thermal power plant",
     "CO2_emissions_t":29407,
     "Source_CO2_emissions":"Industrial point source",
     "Source":"",
     "City":"",
     "Province":"Santa Cruz"
     }
   },
   {
     "type": "Feature",
     "geometry": {
        "type": "Point",
        "coordinates":  { }
     },
     "properties": {
     "Name":"SINOPEC Arg. - Meseta Espinosa",
     "Company":"",
     "Industry":"Thermal power plant",
     "CO2_emissions_t":13683,
     "Source_CO2_emissions":"Industrial point source",
     "Source":"",
     "City":"",
     "Province":"Santa Cruz"
     }
   },
   {
     "type": "Feature",
     "geometry": {
        "type": "Point",
        "coordinates":  { }
     },
     "properties": {
     "Name":"SOLALBAN ENERGIA SA",
     "Company":"",
     "Industry":"Thermal power plant",
     "CO2_emissions_t":42405,
     "Source_CO2_emissions":"Industrial point source",
     "Source":"",
     "City":"",
     "Province":"Buenos Aires"
     }
   },
   {
     "type": "Feature",
     "geometry": {
        "type": "Point",
        "coordinates":  { }
     },
     "properties": {
     "Name":"TERMINAL 6 COGENERACION PUERTO",
     "Company":"",
     "Industry":"Thermal power plant",
     "CO2_emissions_t":209988,
     "Source_CO2_emissions":"Industrial point source",
     "Source":"",
     "City":"",
     "Province":"Santa Fe"
     }
   },
   {
     "type": "Feature",
     "geometry": {
        "type": "Point",
        "coordinates":  { }
     },
     "properties": {
     "Name":"TERMOELE. JOSE SAN MARTIN S.A",
     "Company":"",
     "Industry":"Thermal power plant",
     "CO2_emissions_t":2045982,
     "Source_CO2_emissions":"Industrial point source",
     "Source":"",
     "City":"",
     "Province":"Santa Fe"
     }
   },
   {
     "type": "Feature",
     "geometry": {
        "type": "Point",
        "coordinates":  { }
     },
     "properties": {
     "Name":"TERMOELECTRICA GUILLERMO BROWN",
     "Company":"",
     "Industry":"Thermal power plant",
     "CO2_emissions_t":1021465,
     "Source_CO2_emissions":"Industrial point source",
     "Source":"",
     "City":"",
     "Province":"Buenos Aires"
     }
   },
   {
     "type": "Feature",
     "geometry": {
        "type": "Point",
        "coordinates":  { }
     },
     "properties": {
     "Name":"TERMOELECTRICA M.BELGRANO S.A.",
     "Company":"",
     "Industry":"Thermal power plant",
     "CO2_emissions_t":2150020,
     "Source_CO2_emissions":"Industrial point source",
     "Source":"",
     "City":"",
     "Province":"Buenos Aires"
     }
   },
   {
     "type": "Feature",
     "geometry": {
        "type": "Point",
        "coordinates":  { }
     },
     "properties": {
     "Name":"YAC.ENTRE LOMAS AUTOGENERADOR",
     "Company":"",
     "Industry":"Thermal power plant",
     "CO2_emissions_t":27680,
     "Source_CO2_emissions":"Industrial point source",
     "Source":"",
     "City":"",
     "Province":"Río Negro"
     }
   },
   {
     "type": "Feature",
     "geometry": {
        "type": "Point",
        "coordinates":  { }
     },
     "properties": {
     "Name":"YPF Autogenerador Pza. Huincul",
     "Company":"",
     "Industry":"Thermal power plant",
     "CO2_emissions_t":161867,
     "Source_CO2_emissions":"Industrial point source",
     "Source":"",
     "City":"",
     "Province":"Neuquén"
     }
   },
   {
     "type": "Feature",
     "geometry": {
        "type": "Point",
        "coordinates":  { }
     },
     "properties": {
     "Name":"YPF CT MANANTIALES BEHR II AG",
     "Company":"",
     "Industry":"Thermal power plant",
     "CO2_emissions_t":8767,
     "Source_CO2_emissions":"Industrial point source",
     "Source":"",
     "City":"",
     "Province":"Chubut"
     }
   },
   {
     "type": "Feature",
     "geometry": {
        "type": "Point",
        "coordinates":  { }
     },
     "properties": {
     "Name":"YPF EL TREBOL CT MANANT. BEHR",
     "Company":"",
     "Industry":"Thermal power plant",
     "CO2_emissions_t":6,
     "Source_CO2_emissions":"Industrial point source",
     "Source":"",
     "City":"",
     "Province":"Chubut"
     }
   },
   {
     "type": "Feature",
     "geometry": {
        "type": "Point",
        "coordinates":  { }
     },
     "properties": {
     "Name":"YPF ENERGÍA ELECTR.ex PLUSPETG",
     "Company":"",
     "Industry":"Thermal power plant",
     "CO2_emissions_t":1400041,
     "Source_CO2_emissions":"Industrial point source",
     "Source":"",
     "City":"",
     "Province":"Tucumán"
     }
   },
   {
     "type": "Feature",
     "geometry": {
        "type": "Point",
        "coordinates":  { }
     },
     "properties": {
     "Name":"YPF LA PLATA COGENERACION",
     "Company":"",
     "Industry":"Thermal power plant",
     "CO2_emissions_t":228277,
     "Source_CO2_emissions":"Industrial point source",
     "Source":"",
     "City":"",
     "Province":"Buenos Aires"
     }
   },
   {
     "type": "Feature",
     "geometry": {
        "type": "Point",
        "coordinates":  { }
     },
     "properties": {
     "Name":"YPF LOS PERALES AUTOG",
     "Company":"",
     "Industry":"Thermal power plant",
     "CO2_emissions_t":68352,
     "Source_CO2_emissions":"Industrial point source",
     "Source":"",
     "City":"",
     "Province":"Santa Cruz"
     }
   },
   {
     "type": "Feature",
     "geometry": {
        "type": "Point",
        "coordinates":  { }
     },
     "properties": {
     "Name":"YPF YAC P.HERNANDEZ AUTOG",
     "Company":"",
     "Industry":"Thermal power plant",
     "CO2_emissions_t":26,
     "Source_CO2_emissions":"Industrial point source",
     "Source":"",
     "City":"",
     "Province":"Neuquén"
     }
   },
   {
     "type": "Feature",
     "geometry": {
        "type": "Point",
        "coordinates":  { }
     },
     "properties": {
     "Name":"BIOGAS CT AVELLANEDA SECCO",
     "Company":"",
     "Industry":"Biogas Power Plant",
     "CO2_emissions_t":41391,
     "Source_CO2_emissions":"Biogenic point source",
     "Source":"Electrical energy",
     "City":"",
     "Province":"SANTA FE"
     }
   },
   {
     "type": "Feature",
     "geometry": {
        "type": "Point",
        "coordinates":  { }
     },
     "properties": {
     "Name":"CENTRAL BIOELECTRICA R.CUARTO1",
     "Company":"",
     "Industry":"Biogas Power Plant",
     "CO2_emissions_t":13140,
     "Source_CO2_emissions":"Biogenic point source",
     "Source":"Electrical energy",
     "City":"",
     "Province":"CORDOBA"
     }
   },
   {
     "type": "Feature",
     "geometry": {
        "type": "Point",
        "coordinates":  { }
     },
     "properties": {
     "Name":"C.BIOELECT.R.CUARTO1 REN2",
     "Company":"",
     "Industry":"Biogas Power Plant",
     "CO2_emissions_t":10249.2,
     "Source_CO2_emissions":"Biogenic point source",
     "Source":"Electrical energy",
     "City":"",
     "Province":"CORDOBA"
     }
   },
   {
     "type": "Feature",
     "geometry": {
        "type": "Point",
        "coordinates":  { }
     },
     "properties": {
     "Name":"C.BIOELECT.R.CUARTO2 REN1",
     "Company":"",
     "Industry":"Biogas Power Plant",
     "CO2_emissions_t":7884,
     "Source_CO2_emissions":"Biogenic point source",
     "Source":"Electrical energy",
     "City":"",
     "Province":"CORDOBA"
     }
   },
   {
     "type": "Feature",
     "geometry": {
        "type": "Point",
        "coordinates":  { }
     },
     "properties": {
     "Name":"C.BIOELECT.R.CUARTO2 REN2",
     "Company":"",
     "Industry":"Biogas Power Plant",
     "CO2_emissions_t":7884,
     "Source_CO2_emissions":"Biogenic point source",
     "Source":"Electrical energy",
     "City":"",
     "Province":"CORDOBA"
     }
   },
   {
     "type": "Feature",
     "geometry": {
        "type": "Point",
        "coordinates":  { }
     },
     "properties": {
     "Name":"BIOGAS CTBG CITRUSVIL-ALCOVIL",
     "Company":"",
     "Industry":"Biogas Power Plant",
     "CO2_emissions_t":19710,
     "Source_CO2_emissions":"Biogenic point source",
     "Source":"Electrical energy",
     "City":"",
     "Province":"TUCUMAN"
     }
   },
   {
     "type": "Feature",
     "geometry": {
        "type": "Point",
        "coordinates":  { }
     },
     "properties": {
     "Name":"BIOGAS RS CT ENSENADA SECCO",
     "Company":"",
     "Industry":"Biogas Power Plant",
     "CO2_emissions_t":34821,
     "Source_CO2_emissions":"Biogenic point source",
     "Source":"Electrical energy",
     "City":"",
     "Province":"BUENOS AIRES"
     }
   },
   {
     "type": "Feature",
     "geometry": {
        "type": "Point",
        "coordinates":  { }
     },
     "properties": {
     "Name":"CTBG GENERAL ALVEAR",
     "Company":"",
     "Industry":"Biogas Power Plant",
     "CO2_emissions_t":6570,
     "Source_CO2_emissions":"Biogenic point source",
     "Source":"Electrical energy",
     "City":"",
     "Province":"BUENOS AIRES"
     }
   },
   {
     "type": "Feature",
     "geometry": {
        "type": "Point",
        "coordinates":  { }
     },
     "properties": {
     "Name":"BIOGAS CTBG GIGENA I",
     "Company":"",
     "Industry":"Biogas Power Plant",
     "CO2_emissions_t":7884,
     "Source_CO2_emissions":"Biogenic point source",
     "Source":"Electrical energy",
     "City":"",
     "Province":"CORDOBA"
     }
   },
   {
     "type": "Feature",
     "geometry": {
        "type": "Point",
        "coordinates":  { }
     },
     "properties": {
     "Name":"BIOGAS CTBG JUSTO DARACT",
     "Company":"",
     "Industry":"Biogas Power Plant",
     "CO2_emissions_t":6570,
     "Source_CO2_emissions":"Biogenic point source",
     "Source":"Electrical energy",
     "City":"",
     "Province":"SAN LUIS"
     }
   },
   {
     "type": "Feature",
     "geometry": {
        "type": "Point",
        "coordinates":  { }
     },
     "properties": {
     "Name":"BIOGAS CTBG PACUCA BIO ENERGÍA",
     "Company":"",
     "Industry":"Biogas Power Plant",
     "CO2_emissions_t":6570,
     "Source_CO2_emissions":"Biogenic point source",
     "Source":"Electrical energy",
     "City":"",
     "Province":"BUENOS AIRES"
     }
   },
   {
     "type": "Feature",
     "geometry": {
        "type": "Point",
        "coordinates":  { }
     },
     "properties": {
     "Name":"BIOGAS CTBG PERGAMINO",
     "Company":"",
     "Industry":"Biogas Power Plant",
     "CO2_emissions_t":15768,
     "Source_CO2_emissions":"Biogenic point source",
     "Source":"Electrical energy",
     "City":"",
     "Province":"BUENOS AIRES"
     }
   },
   {
     "type": "Feature",
     "geometry": {
        "type": "Point",
        "coordinates":  { }
     },
     "properties": {
     "Name":"C.T.SAN MARTIN NORTE 3A",
     "Company":"",
     "Industry":"Biogas Power Plant",
     "CO2_emissions_t":33507,
     "Source_CO2_emissions":"Biogenic point source",
     "Source":"Electrical energy",
     "City":"",
     "Province":"BUENOS AIRES"
     }
   },
   {
     "type": "Feature",
     "geometry": {
        "type": "Point",
        "coordinates":  { }
     },
     "properties": {
     "Name":"CT SAN MIGUEL NORTE III-ENARSA",
     "Company":"",
     "Industry":"Biogas Power Plant",
     "CO2_emissions_t":75555,
     "Source_CO2_emissions":"Biogenic point source",
     "Source":"Electrical energy",
     "City":"",
     "Province":"BUENOS AIRES"
     }
   },
   {
     "type": "Feature",
     "geometry": {
        "type": "Point",
        "coordinates":  { }
     },
     "properties": {
     "Name":"ENERGIA AGRO S.A.U",
     "Company":"",
     "Industry":"Biogas Power Plant",
     "CO2_emissions_t":9296.55,
     "Source_CO2_emissions":"Biogenic point source",
     "Source":"Electrical energy",
     "City":"",
     "Province":"SANTA FE"
     }
   },
   {
     "type": "Feature",
     "geometry": {
        "type": "Point",
        "coordinates":  { }
     },
     "properties": {
     "Name":"BIOGAS CTBG TIGONBU",
     "Company":"",
     "Industry":"Biogas Power Plant",
     "CO2_emissions_t":13140,
     "Source_CO2_emissions":"Biogenic point source",
     "Source":"Electrical energy",
     "City":"",
     "Province":"SAN LUIS"
     }
   },
   {
     "type": "Feature",
     "geometry": {
        "type": "Point",
        "coordinates":  { }
     },
     "properties": {
     "Name":"BIOGAS CTBG VILLA DEL ROS. CGY",
     "Company":"",
     "Industry":"Biogas Power Plant",
     "CO2_emissions_t":6570,
     "Source_CO2_emissions":"Biogenic point source",
     "Source":"Electrical energy",
     "City":"",
     "Province":"CORDOBA"
     }
   },
   {
     "type": "Feature",
     "geometry": {
        "type": "Point",
        "coordinates":  { }
     },
     "properties": {
     "Name":"BIOGAS CTBG VENADO TUERTO",
     "Company":"",
     "Industry":"Biogas Power Plant",
     "CO2_emissions_t":13797,
     "Source_CO2_emissions":"Biogenic point source",
     "Source":"Electrical energy",
     "City":"",
     "Province":"SANTA FE"
     }
   },
   {
     "type": "Feature",
     "geometry": {
        "type": "Point",
        "coordinates":  { }
     },
     "properties": {
     "Name":"BIO ENERGÍA YANQUETRUZ S.A.",
     "Company":"",
     "Industry":"Biogas Power Plant",
     "CO2_emissions_t":9855,
     "Source_CO2_emissions":"Biogenic point source",
     "Source":"Electrical energy",
     "City":"",
     "Province":"SAN LUIS"
     }
   },
   {
     "type": "Feature",
     "geometry": {
        "type": "Point",
        "coordinates":  { }
     },
     "properties": {
     "Name":"BIOGAS CTBG ENRECO",
     "Company":"",
     "Industry":"Biogas Power Plant",
     "CO2_emissions_t":13140,
     "Source_CO2_emissions":"Biogenic point source",
     "Source":"Electrical energy",
     "City":"",
     "Province":"CORDOBA"
     }
   },
   {
     "type": "Feature",
     "geometry": {
        "type": "Point",
        "coordinates":  { }
     },
     "properties": {
     "Name":"CTBG BIO ENERGÍA YANQUETRUZ II",
     "Company":"",
     "Industry":"Biogas Power Plant",
     "CO2_emissions_t":5256,
     "Source_CO2_emissions":"Biogenic point source",
     "Source":"Electrical energy",
     "City":"",
     "Province":"SAN LUIS"
     }
   },
   {
     "type": "Feature",
     "geometry": {
        "type": "Point",
        "coordinates":  { }
     },
     "properties": {
     "Name":"CTBG BIO. SANTA CATALINA",
     "Company":"",
     "Industry":"Biogas Power Plant",
     "CO2_emissions_t":13140,
     "Source_CO2_emissions":"Biogenic point source",
     "Source":"Electrical energy",
     "City":"",
     "Province":"CORDOBA"
     }
   },
   {
     "type": "Feature",
     "geometry": {
        "type": "Point",
        "coordinates":  { }
     },
     "properties": {
     "Name":"BIOGAS CTBG AB ENERGÍA",
     "Company":"",
     "Industry":"Biogas Power Plant",
     "CO2_emissions_t":13140,
     "Source_CO2_emissions":"Biogenic point source",
     "Source":"Electrical energy",
     "City":"",
     "Province":"LA PAMPA"
     }
   },
   {
     "type": "Feature",
     "geometry": {
        "type": "Point",
        "coordinates":  { }
     },
     "properties": {
     "Name":"CT BIOMASA MM BIOENERGÍA",
     "Company":"",
     "Industry":"Biogas Power Plant",
     "CO2_emissions_t":19710,
     "Source_CO2_emissions":"Biogenic point source",
     "Source":"Electrical energy",
     "City":"",
     "Province":"MISIONES"
     }
   },
   {
     "type": "Feature",
     "geometry": {
        "type": "Point",
        "coordinates":  { }
     },
     "properties": {
     "Name":"CTBRS SAN MARTÍN NORTE III-D",
     "Company":"",
     "Industry":"Biogas Power Plant",
     "CO2_emissions_t":33507,
     "Source_CO2_emissions":"Biogenic point source",
     "Source":"Electrical energy",
     "City":"",
     "Province":"BUENOS AIRES"
     }
   },
   {
     "type": "Feature",
     "geometry": {
        "type": "Point",
        "coordinates":  { }
     },
     "properties": {
     "Name":"BIOGAS CTBG ARRE BEEF SA",
     "Company":"",
     "Industry":"Biogas Power Plant",
     "CO2_emissions_t":9855,
     "Source_CO2_emissions":"Biogenic point source",
     "Source":"Electrical energy",
     "City":"",
     "Province":"BUENOS AIRES"
     }
   },
   {
     "type": "Feature",
     "geometry": {
        "type": "Point",
        "coordinates":  { }
     },
     "properties": {
     "Name":"BIOGAS CT RESENER SA",
     "Company":"",
     "Industry":"Biogas Power Plant",
     "CO2_emissions_t":5256,
     "Source_CO2_emissions":"Biogenic point source",
     "Source":"Electrical energy",
     "City":"",
     "Province":"BUENOS AIRES"
     }
   },
   {
     "type": "Feature",
     "geometry": {
        "type": "Point",
        "coordinates":  { }
     },
     "properties": {
     "Name":"CTBG POLLOS SAN MATEO",
     "Company":"",
     "Industry":"Biogas Power Plant",
     "CO2_emissions_t":15768,
     "Source_CO2_emissions":"Biogenic point source",
     "Source":"Electrical energy",
     "City":"",
     "Province":"CORDOBA"
     }
   },
   {
     "type": "Feature",
     "geometry": {
        "type": "Point",
        "coordinates":  { }
     },
     "properties": {
     "Name":"CTBG GENERAL VILLEGAS Ren 2",
     "Company":"",
     "Industry":"Biogas Power Plant",
     "CO2_emissions_t":8015.4,
     "Source_CO2_emissions":"Biogenic point source",
     "Source":"Electrical energy",
     "City":"",
     "Province":"BUENOS AIRES"
     }
   },
   {
     "type": "Feature",
     "geometry": {
        "type": "Point",
        "coordinates":  { }
     },
     "properties": {
     "Name":"YPF Plaza Huincul",
     "Company":"YPF SA",
     "Industry":"Methanol",
     "CO2_emissions_t":275370,
     "Source_CO2_emissions":"Industrial point source",
     "Source":"Methanol",
     "City":"",
     "Province":"Neuquén"
     }
   },
   {
     "type": "Feature",
     "geometry": {
        "type": "Point",
        "coordinates":  { }
     },
     "properties": {
     "Name":"Arauco General San Martin",
     "Company":"Arauco Argentina S.A. ",
     "Industry":"Methanol",
     "CO2_emissions_t":33500,
     "Source_CO2_emissions":"Industrial point source",
     "Source":"Methanol",
     "City":"",
     "Province":"Santa Fe"
     }
   },
   {
     "type": "Feature",
     "geometry": {
        "type": "Point",
        "coordinates":  { }
     },
     "properties": {
     "Name":"La Plata Refinery",
     "Company":"YPF SA",
     "Industry":"Refinery",
     "CO2_emissions_t":2224965.52,
     "Source_CO2_emissions":"Industrial point source",
     "Source":"",
     "City":"",
     "Province":""
     }
   },
   {
     "type": "Feature",
     "geometry": {
        "type": "Point",
        "coordinates":  { }
     },
     "properties": {
     "Name":"Lujan de Cuyo Refinery",
     "Company":"YPF SA",
     "Industry":"Refinery",
     "CO2_emissions_t":1229586.21,
     "Source_CO2_emissions":"Industrial point source",
     "Source":"",
     "City":"",
     "Province":""
     }
   },
   {
     "type": "Feature",
     "geometry": {
        "type": "Point",
        "coordinates":  { }
     },
     "properties": {
     "Name":"Plaza Huincul Refinery",
     "Company":"YPF SA",
     "Industry":"Refinery",
     "CO2_emissions_t":292758.62,
     "Source_CO2_emissions":"Industrial point source",
     "Source":"",
     "City":"",
     "Province":""
     }
   },
   {
     "type": "Feature",
     "geometry": {
        "type": "Point",
        "coordinates":  { }
     },
     "properties": {
     "Name":"Raizen Dock Sud",
     "Company":"Raizen",
     "Industry":"Refinery",
     "CO2_emissions_t":1171034.48,
     "Source_CO2_emissions":"Industrial point source",
     "Source":"",
     "City":"",
     "Province":""
     }
   },
   {
     "type": "Feature",
     "geometry": {
        "type": "Point",
        "coordinates":  { }
     },
     "properties": {
     "Name":"Axion Campana Refinery",
     "Company":"PAE",
     "Industry":"Refinery",
     "CO2_emissions_t":1171034.48,
     "Source_CO2_emissions":"Industrial point source",
     "Source":"",
     "City":"",
     "Province":""
     }
   },
   {
     "type": "Feature",
     "geometry": {
        "type": "Point",
        "coordinates":  { }
     },
     "properties": {
     "Name":"DAPSA",
     "Company":"",
     "Industry":"",
     "CO2_emissions_t":0,
     "Source_CO2_emissions":"Industrial point source",
     "Source":"",
     "City":"",
     "Province":""
     }
   },
   {
     "type": "Feature",
     "geometry": {
        "type": "Point",
        "coordinates":  { }
     },
     "properties": {
     "Name":"Dock Sud Refinery",
     "Company":"",
     "Industry":"Refinery",
     "CO2_emissions_t":0,
     "Source_CO2_emissions":"Industrial point source",
     "Source":"",
     "City":"",
     "Province":""
     }
   },
   {
     "type": "Feature",
     "geometry": {
        "type": "Point",
        "coordinates":  { }
     },
     "properties": {
     "Name":"REFINOR Campo Duran Refinery",
     "Company":"",
     "Industry":"Refinery",
     "CO2_emissions_t":351310.34,
     "Source_CO2_emissions":"Industrial point source",
     "Source":"",
     "City":"",
     "Province":""
     }
   },
   {
     "type": "Feature",
     "geometry": {
        "type": "Point",
        "coordinates":  { }
     },
     "properties": {
     "Name":"TRAFIGURA Bahia Blanca Refinery",
     "Company":"",
     "Industry":"Refinery",
     "CO2_emissions_t":351310.34,
     "Source_CO2_emissions":"Industrial point source",
     "Source":"",
     "City":"",
     "Province":""
     }
   },
   {
     "type": "Feature",
     "geometry": {
        "type": "Point",
        "coordinates":  { }
     },
     "properties": {
     "Name":"OIL Combustibles San Lorenzo Refinery",
     "Company":"",
     "Industry":"Refinery",
     "CO2_emissions_t":0,
     "Source_CO2_emissions":"Industrial point source",
     "Source":"",
     "City":"",
     "Province":""
     }
   },
   {
     "type": "Feature",
     "geometry": {
        "type": "Point",
        "coordinates":  { }
     },
     "properties": {
     "Name":"PAMPA ENERGIA SA",
     "Company":"",
     "Industry":"Etileno",
     "CO2_emissions_t":25916,
     "Source_CO2_emissions":"Industrial point source",
     "Source":"Etileno",
     "City":"Pto General San Martín",
     "Province":"Santa Fe"
     }
   },
   {
     "type": "Feature",
     "geometry": {
        "type": "Point",
        "coordinates":  { }
     },
     "properties": {
     "Name":"PBB Polisur S.A.",
     "Company":"",
     "Industry":"Etileno",
     "CO2_emissions_t":229900,
     "Source_CO2_emissions":"Industrial point source",
     "Source":"Etileno",
     "City":"Bahia Blanca",
     "Province":"Buenos Aires"
     }
   },
   {
     "type": "Feature",
     "geometry": {
        "type": "Point",
        "coordinates":  { }
     },
     "properties": {
     "Name":"PBB Polisur S.A.",
     "Company":"",
     "Industry":"Etileno",
     "CO2_emissions_t":355300,
     "Source_CO2_emissions":"Industrial point source",
     "Source":"Etileno",
     "City":"Bahia Blanca",
     "Province":"Buenos Aires"
     }
   }
 ]
 }